"","LATITUDE","LONGITUDE","UNITID","INSTNM","STABBR","UGDS_MEN","UGDS_WOMEN","UGDS_WHITE","UGDS_BLACK","UGDS_HISP","UGDS_ASIAN","UGDS_AIAN","UGDS_NHPI","UGDS_2MOR","FIRST_GEN","MARRIED","CITY","ZIP","CONTROL","PCTFLOAN","HIGHDEG","PREDDEG","ICLEVEL","DEBT_MDN","MN_EARN_WNE_P10","GENDER_DIV","RACE_DIV","MARITAL_STATUS_DIV","FIRST_GEN_DIV","DIV_SCORE"
"193",37.787748,-122.400686,108232,"Academy of Art University","CA",0.4342,0.5658,0.2392,0.0685,0.1141,0.0804,0.0051,0.0058,0.0249,0.3810349096,0.1439344969,"San Francisco","94105",3,0.5524,4,3,1,14750,44900,0.99451290421504,0.777459726009824,0.999710090880736,0.96598227368873,0.934416248698583
"194",38.59172,-121.281506,108250,"ITT Technical Institute-Rancho Cordova","CA",0.724,0.276,0.472,0.114,0.11,0.076,0.008,0.002,0.04,0.4972857507,0.2337406569,"Rancho Cordova","95670-6034",3,0.7667,3,2,1,13566,42800,0.556257897785604,0.638827483931797,0.954017663877175,0.999509074179081,0.787153029943414
"196",33.728895,-117.987666,108348,"The Academy of Radio and TV Broadcasting","CA",0.5714,0.4286,0.2143,0.4286,0.3571,0,0,0,0,0.5913043478,0.1911764706,"Huntington Beach","92647",3,1,1,1,3,9500,30800,0.874417559789699,-0.417098903293057,0.989031157222096,0.988099410299761,0.608612306004625
"197",37.764203,-122.243566,108649,"Avalon School of Cosmetology-Alameda","CA",0.0395,0.9605,0.1265,0.4743,0.2253,0.0672,0.0079,0,0.0553,0.4162679426,0.0695970696,"Alameda","94501",3,0.6768,1,1,3,6333,24900,0.463734141461932,-0.795857721011645,0.956477668063681,0.981706120262955,0.401515052194231
"198",37.78239,-122.279261,108667,"College of Alameda","CA",0.4484,0.5516,0.1529,0.2128,0.2196,0.3021,0.0037,0.0041,0.0473,0.55898654,0.1285390713,"Alameda","94501",1,0.0117,2,2,2,6750,36400,0.989373338740607,0.274401012537027,0.9967844213528,0.99590716153078,0.814116483540303
"199",34.942979,-120.421486,108807,"Allan Hancock College","CA",0.4901,0.5099,0.3565,0.0279,0.5287,0.0418,0.007,0.0043,0.0312,0.6184861164,0.1165644172,"Santa Maria","93454-6399",1,0.0231,2,2,2,6000,33900,0.964550911492352,0.854698889061897,0.992331685704131,0.978380820133821,0.94749057659805
"204",34.079236,-118.292282,109040,"American Career College-Los Angeles","CA",0.2188,0.7812,0.0484,0.1494,0.6454,0.0694,0.0043,0.0081,0.0632,0.5788822948,0.1301510989,"Los Angeles","90004",3,0.6497,2,1,2,9500,32900,0.866051488354013,0.589974520657316,0.997238358993415,0.991582107619497,0.86121161890606
"206",38.649734,-121.346012,109208,"American River College","CA",0.4622,0.5378,0.4695,0.0989,0.2063,0.1063,0.0076,0.0085,0.0587,0.5227272727,0.1603135402,"Sacramento","95841-4286",1,0.056,2,1,2,6913,34800,0.982765756155106,0.760685242912158,0.999365576698041,0.999821547055912,0.935659530705304
"207",34.676207,-118.186166,109350,"Antelope Valley College","CA",0.4098,0.5902,0.2401,0.2008,0.4601,0.0323,0.0041,0.0014,0.0475,0.5823882588,0.1031746032,"Lancaster","93536-5426",1,0.151,2,2,2,8042,33100,0.999413127572438,0.797654131083813,0.985096691103696,0.99066007722098,0.943206006745232
"208",34.170844,-118.186901,109651,"Art Center College of Design","CA",0.5044,0.4956,0.2001,0.0116,0.1097,0.3484,0.0022,0.0033,0.0436,0.2323943662,0.041736227,"Pasadena","91103",2,0.4929,4,3,1,30000,60800,0.952696207950237,0.0590240752567629,0.921360626894174,0.846386215250978,0.694866781338038
"209",34.055987,-118.27243,109721,"Associated Technical College-Los Angeles","CA",0.482,0.518,0.097,0.4377,0.385,0.0166,0.0111,0.0055,0.036,0.5928961749,0.1450381679,"Los Angeles","90017-1604",3,0.3682,1,1,3,6500,28100,0.970508501719781,-0.507546388837191,0.999798865922994,0.987609647805745,0.612592656652832
"210",32.715658,-117.158203,109730,"Associated Technical College-San Diego","CA",0.8319,0.1681,0.2353,0.3193,0.4454,0,0,0,0,0.56,0.1049562682,"San Diego","92101",3,0.8579,1,1,3,7000,21900,0.213974740810627,0.266854243530376,0.986196771897298,0.995724141302003,0.615687474385076
"211",34.130865,-117.88795,109785,"Azusa Pacific University","CA",0.3535,0.6465,0.4714,0.0448,0.2614,0.0912,0.0019,0.0095,0.0738,0.3616438356,0.1867158672,"Azusa","91702-7000",2,0.5172,4,3,1,18500,53300,0.991756067436581,0.752910029080067,0.991307100462,0.955264276888671,0.92280936846683
"212",35.4108,-118.973491,109819,"Bakersfield College","CA",0.442,0.558,0.2298,0.04,0.6473,0.0377,0.0042,0.0011,0.032,0.6388429752,0.0887928966,"Bakersfield","93305-1299",1,0.0328,2,2,2,7750,34900,0.991898123529133,0.760387672723172,0.974672627677662,0.969216566395696,0.924043747581416
"214",32.676762,-117.090235,109934,"Bellus Academy-National City","CA",0.0734,0.9266,0.1073,0.1299,0.6045,0.0678,0.0169,0.0113,0.0621,0.5614973262,0.188,"National City","91950",3,0.6755,1,1,2,12630,19300,0.560373105266921,0.725753699316515,0.990678990341994,0.995446413780982,0.818063052176603
"216",33.904823,-118.017342,110097,"Biola University","CA",0.3728,0.6272,0.5165,0.0209,0.1829,0.1613,0.0014,0.003,0.0648,0.2175015853,0.0131108462,"La Mirada","90639-0001",2,0.6176,4,3,1,19500,46700,0.99736153609553,0.554848685994704,0.874539054116573,0.829657459055646,0.814101683815614
"218",33.819,-117.906409,110194,"Brownson Technical School","CA",1,0,0.1739,0.0652,0.5435,0.1957,0,0,0,0.6431718062,0.2789115646,"Anaheim","92805",3,0.8013,1,1,3,9392,42600,-0.512926837445148,0.752626135619207,0.890534288698981,0.96705957222718,0.524323289775055
"219",34.061406,-118.302882,110219,"Bryan University","CA",0.324,0.676,0.5355,0.21,0.1337,0.0181,0.0083,0.0076,0.0823,0.506246282,0.2961890979,"Los Angeles","90010",3,0.7468,4,2,1,9058,43500,0.977179381727915,0.306879275767747,0.859085180308476,0.999906911118855,0.785762687230748
"220",39.649116,-121.644691,110246,"Butte College","CA",0.4764,0.5236,0.6006,0.0257,0.1916,0.0547,0.017,0.0046,0.021,0.5041250543,0.1058274252,"Oroville","95965-8399",1,0.1223,2,1,2,7911,35800,0.974307108192709,0.425788600759841,0.98671931226465,0.999841002589374,0.846664005951644
"223",36.9891,-121.927926,110334,"Cabrillo College","CA",0.482,0.518,0.5089,0.0127,0.3677,0.0333,0.0045,0.002,0.0471,0.4946703514,0.0829548895,"Aptos","95003",1,0.0317,2,2,2,8000,40500,0.970508501719781,0.685790235020511,0.969657032719489,0.999333954786925,0.906322431061677
"224",33.928569,-117.42587,110361,"California Baptist University","CA",0.3672,0.6328,0.4068,0.0774,0.3225,0.048,0.0065,0.0106,0.0514,0.4110840438,0.132455669,"Riverside","92504-3297",2,0.7711,4,3,1,20000,43800,0.996055300206691,0.891759083438642,0.997827354931331,0.979696197852729,0.966334484107348
"225",37.76723,-122.399941,110370,"California College of the Arts","CA",0.381,0.619,0.2917,0.039,0.1349,0.162,0.0033,0.0119,0,0.247826087,0.0404040404,"San Francisco","94107-2247",2,0.5273,4,3,1,22549,45500,0.998801920520363,0.716444255317325,0.919423140814528,0.862808430894254,0.874369436886618
"228",34.225551,-118.879467,110413,"California Lutheran University","CA",0.4437,0.5563,0.5098,0.0432,0.2547,0.0657,0.0114,0.0057,0.0272,0.304099142,0.045178106,"Thousand Oaks","91360-2787",2,0.5765,4,3,1,19000,55500,0.991260827002627,0.711426674272255,0.926257225058587,0.914830238493663,0.885943741206783
"229",35.29889,-120.65856,110422,"California Polytechnic State University-San Luis Obispo","CA",0.5409,0.4591,0.5872,0.007,0.1516,0.1185,0.0016,0.002,0.0703,0.2634491919,0.0111754967,"San Luis Obispo","93407",1,0.3391,4,3,1,16500,67400,0.914698460039481,0.381107781924172,0.870980579867343,0.878488849658213,0.761318917872302
"230",32.897056,-117.094398,110468,"Alliant International University-San Diego","CA",0.411,0.589,0.2161,0.1102,0.3263,0.0212,0,0,0.0254,0.3795712484,0.1822222222,"San Diego","92131",2,0.1592,4,1,1,3000,60600,0.999288334259341,0.889130778530185,0.993332618135149,0.96522440031523,0.961744032809976
"231",35.350005,-119.104711,110486,"California State University-Bakersfield","CA",0.3892,0.6108,0.1835,0.0638,0.5186,0.0678,0.006,7e-04,0.028,0.5885152284,0.0802683897,"Bakersfield","93311-1099",1,0.4069,4,3,1,11000,47700,0.999680999345371,0.903157627383561,0.967196860254669,0.988933736159248,0.964742305785712
"232",37.52577,-120.852511,110495,"California State University-Stanislaus","CA",0.3582,0.6418,0.2585,0.0246,0.475,0.1121,0.0043,0.0073,0.0363,0.5922123894,0.0760466349,"Turlock","95382-0299",1,0.3966,4,3,1,12750,45100,0.993407542529559,0.93202104013785,0.963137037574867,0.987821240230108,0.969096715118096
"233",34.182987,-117.322508,110510,"California State University-San Bernardino","CA",0.3876,0.6124,0.1588,0.0653,0.5831,0.0605,0.0016,0.0024,0.0259,0.6048401343,0.062838119,"San Bernardino","92407-2397",1,0.4476,4,3,1,14657.5,46100,0.999553548116682,0.828685220956418,0.948905815634631,0.983619760921035,0.940191086407192
"234",34.054273,-117.819019,110529,"California State Polytechnic University-Pomona","CA",0.563,0.437,0.2023,0.0329,0.3864,0.2459,0.0019,0.0024,0.0397,0.4800781837,0.0386630082,"Pomona","91768",1,0.3963,4,3,1,15000,54400,0.886286158068262,0.712986411477287,0.916855501500177,0.997867591669312,0.87849891567876
"235",39.728003,-121.846333,110538,"California State University-Chico","CA",0.4785,0.5215,0.4917,0.0213,0.2627,0.0592,0.0057,0.0015,0.0497,0.4521233974,0.0617220801,"Chico","95929-0150",1,0.459,4,3,1,14500,50300,0.972913308904555,0.70891536525178,0.947597168784991,0.992740634538097,0.905541619369856
"236",33.86524,-118.259316,110547,"California State University-Dominguez Hills","CA",0.363,0.637,0.0835,0.1472,0.5732,0.0956,0.0018,0.0034,0.0274,0.5768188451,0.0816264139,"Carson","90747-0005",1,0.3827,4,3,1,13250,45400,0.994903825710578,0.742827433617039,0.968452460249294,0.992102377377282,0.924571524238548
"237",36.814477,-119.748258,110556,"California State University-Fresno","CA",0.4276,0.5724,0.231,0.0353,0.4541,0.1518,0.0032,0.0024,0.0303,0.5243882936,0.0579097658,"Fresno","93740",1,0.3316,4,3,1,13000,46600,0.996328723826966,0.913188080856211,0.943002112353717,0.999754220537074,0.963068284393492
"238",33.883627,-117.885349,110565,"California State University-Fullerton","CA",0.4472,0.5528,0.2397,0.0205,0.3857,0.2158,0.0018,0.0021,0.0423,0.4875980496,0.0593089221,"Fullerton","92831-3599",1,0.3308,4,3,1,12500,49000,0.989872781002546,0.790176944179076,0.944710970976904,0.998726899245147,0.930871898850918
"239",37.65707,-122.058073,110574,"California State University-East Bay","CA",0.3782,0.6218,0.1725,0.1088,0.2831,0.2378,0.0019,0.0108,0.056,0.50269179,0.0795760733,"Hayward","94542",1,0.3865,4,3,1,12500,55000,0.998373191251186,0.713003942478898,0.966547330153064,0.999786541929709,0.919427751453214
"240",33.782752,-118.1123,110583,"California State University-Long Beach","CA",0.4361,0.5639,0.1998,0.038,0.3791,0.2318,0.005,0.0039,0.0458,0.4808894354,0.042041292,"Long Beach","90840-0115",1,0.3907,4,3,1,13750,50400,0.993922759837857,0.760017355205313,0.921800985044848,0.997970900404387,0.918428000123101
"241",34.066927,-118.168965,110592,"California State University-Los Angeles","CA",0.4153,0.5847,0.0757,0.0423,0.6083,0.1581,0.001,0.0024,0.0173,0.6319205298,0.0513557536,"Los Angeles","90032",1,0.3605,4,3,1,11402,46100,0.998742445568782,0.659661657319977,0.934651121131988,0.972514142736383,0.891392341689282
"242",34.23671,-118.526817,110608,"California State University-Northridge","CA",0.4587,0.5413,0.2446,0.0566,0.4181,0.1125,0.0015,0.0021,0.0331,0.5370760037,0.0419749853,"Northridge","91330",1,0.3438,4,3,1,11509,47100,0.984592061286519,0.969943584258436,0.921705377176581,0.998885177737662,0.9687815501148
"243",38.55745,-121.42194,110617,"California State University-Sacramento","CA",0.4366,0.5634,0.3028,0.0567,0.276,0.2112,0.0041,0.0091,0.0628,0.4887604367,0.0762653899,"Sacramento","95819-2694",1,0.3994,4,3,1,13479,49900,0.99376245001018,0.798728517289004,0.963353218748894,0.998840060415923,0.938671061616
"244",37.871969,-122.260423,110635,"University of California-Berkeley","CA",0.4788,0.5212,0.2758,0.0209,0.1384,0.3509,0.0016,0.0027,0.0471,0.3648559126,0.0253479853,"Berkeley","94720",1,0.2698,4,3,1,13597,74000,0.972711189515061,0.119630733902372,0.895887096157078,0.957140954334668,0.736342493477295
"245",38.539895,-121.751958,110644,"University of California-Davis","CA",0.4238,0.5762,0.2967,0.0209,0.1834,0.342,0.0017,0.0049,0.0539,0.4136546185,0.0246010638,"Davis","95616-8678",1,0.4191,4,3,1,12999,66000,0.9972092433355,0.214258248556708,0.894641079795448,0.98070596256381,0.771703633562867
"246",33.648434,-117.841248,110653,"University of California-Irvine","CA",0.461,0.539,0.1607,0.0178,0.2399,0.4071,5e-04,0.0041,0.041,0.4675324675,0.0148425108,"Irvine","92697",1,0.4349,4,3,1,15000,60600,0.983403437868757,-0.145139235439286,0.877680836991556,0.995943407147407,0.677972111642108
"247",34.068892,-118.443901,110662,"University of California-Los Angeles","CA",0.4432,0.5568,0.2784,0.0279,0.1964,0.2997,0.0014,0.0032,0.0476,0.3685678427,0.0178357673,"Los Angeles","90095-1405",1,0.3626,4,3,1,15000,72600,0.991450771495375,0.432450856333765,0.883017596085291,0.959259589447223,0.816544703340414
"248",33.97588,-117.331098,110671,"University of California-Riverside","CA",0.4831,0.5169,0.1384,0.0453,0.3616,0.3595,0.0018,0.0037,0.0382,0.4472586873,0.0146755922,"Riverside","92521",1,0.5538,4,3,1,17000,51100,0.969731585259761,0.20657315902042,0.87737972926194,0.991537310958429,0.761305446125137
"249",32.876598,-117.237793,110680,"University of California-San Diego","CA",0.5249,0.4751,0.2247,0.0117,0.1623,0.3849,0.0013,0.0034,0.0475,0.4044755671,0.0179656896,"La Jolla","92093",1,0.4124,4,3,1,17382.5,69400,0.932724045117209,-0.061339609774278,0.883246542697246,0.976982069372755,0.682903261853233
"251",34.416281,-119.846404,110705,"University of California-Santa Barbara","CA",0.4746,0.5254,0.3654,0.0214,0.2534,0.1903,0.0011,0.001,0.0842,0.4173897325,0.0049953169,"Santa Barbara","93106",1,0.423,4,3,1,14500,58200,0.97547249254349,0.70618149344301,0.859284083752717,0.982127280657354,0.880766337599143
"252",36.997258,-122.067993,110714,"University of California-Santa Cruz","CA",0.4722,0.5278,0.3465,0.0196,0.3155,0.2035,0.0015,0.0017,0.074,0.3845369237,0.0106086957,"Santa Cruz","95064-1011",1,0.5458,4,3,1,16500,49300,0.976984265467923,0.749025299672216,0.869928997509906,0.967761703769001,0.890925066604761
"256",37.765415,-122.402643,111009,"Le Cordon Bleu College of Culinary Arts-San Francisco","CA",0.5543,0.4457,0.0317,0.009,0.0113,0.0271,0.0045,0.0023,0.0113,0.4093567251,0.1521197007,"San Francisco","94103",3,0.5358,2,1,2,9500,40100,0.897957684276123,0.256262940463091,0.999983440040802,0.979003211237834,0.783301819004462
"257",32.765221,-117.024261,111054,"California Hair Design Academy","CA",0.2205,0.7795,0.2462,0.0769,0.5949,0.0359,0,0,0.0308,0.5201793722,0.2304964539,"La Mesa","91941-5055",3,0.5446,1,1,3,6333,21600,0.868581678394993,0.840073203853837,0.95753371844317,0.999903923772221,0.916523131116055
"259",38.069061,-122.231551,111188,"The California Maritime Academy","CA",0.8606,0.1394,0.5435,0.0181,0.171,0.0888,0.0029,0.0038,0.1051,0.2549019608,0.0306122449,"Vallejo","94590",1,0.5895,4,3,1,21000,89600,0.106568434898352,0.422113533023191,0.904458742584626,0.870028119547161,0.575792207513332
"261",37.447365,-122.265549,111434,"Canada College","CA",0.353,0.647,0.2808,0.0387,0.4605,0.1243,0.0025,0.0158,0.0348,0.6212121212,0.1166509878,"Redwood City","94061-1099",1,0.013,2,1,2,6000,36800,0.991569526466032,0.946988485826032,0.992370713105924,0.977247285777918,0.977044002793976
"262",34.403121,-118.569524,111461,"College of the Canyons","CA",0.4931,0.5069,0.3583,0.0454,0.4553,0.0798,0.0019,0.0018,0.0455,0.5172413793,0.0863800723,"Santa Clarita","91355-1899",1,0.0357,2,2,2,5500,42900,0.962205405840224,0.93030419478108,0.97265460076958,0.999967504152062,0.966282926385736
"263",33.781018,-118.031697,111513,"Career Academy of Beauty","CA",0.0064,0.9936,0.5287,0.0255,0.2994,0.1146,0,0.0127,0,0.5,0.1877729258,"Garden Grove","92845",3,0.5563,1,1,3,6333,25100,0.36011929293106,0.656591892853266,0.9907916539986,0.99966262212606,0.751791365477247
"264",34.195438,-118.448335,111638,"Casa Loma College-Van Nuys","CA",0.2668,0.7332,0.2197,0.1435,0.4888,0.1368,0,0.0022,0.0067,0.5059382423,0.152854512,"Van Nuys","91405",2,0.7281,2,1,2,14820,49900,0.928216080777735,0.88614513763715,0.999964439569465,0.999898428462323,0.953556021611668
"265",32.711715,-117.122496,111708,"CET-San Diego","CA",0.83,0.17,0.2213,0.1502,0.5771,0.0079,0.0079,0.0316,0.004,0.6605664488,0.2064714946,"San Diego","92102",2,0.3922,1,1,3,5278,24900,0.220842592462955,0.70731534027713,0.979219962154627,0.957655706057756,0.716258400238117
"266",37.322723,-121.88698,111717,"CET-Sobrato","CA",0.5015,0.4985,0.052,0.0214,0.8746,0.0306,0.0031,0.0061,0.0122,0.6605664488,0.2064714946,"San Jose","95110",2,0.4019,1,1,3,5278,24900,0.955238297686491,0.126485491450898,0.979219962154627,0.957655706057756,0.754649864337443
"267",32.790908,-115.549079,111726,"CET-El Centro","CA",0.7038,0.2962,0.0115,0,0.9846,0,0,0.0038,0,0.6605664488,0.2064714946,"El Centro","92243",2,0.0728,1,1,3,5278,24900,0.609536399631571,-0.355644078723813,0.979219962154627,0.957655706057756,0.547691997280035
"268",34.075136,-117.268738,111744,"CET-San Bernardino","CA",0.9569,0.0431,0.2414,0.1034,0.5776,0,0.0259,0.0345,0.0172,0.6605664488,0.2064714946,"San Bernardino","92408",2,0.5409,1,1,3,5278,24900,-0.30406603779227,0.679596662787411,0.979219962154627,0.957655706057756,0.578101573301881
"269",36.931833,-121.767991,111762,"CET-Watsonville","CA",0.5417,0.4583,0,0.0104,0.9792,0,0,0.0104,0,0.6605664488,0.2064714946,"Watsonville","95076",2,0.1206,1,1,3,5278,24900,0.913741083616784,-0.339227949459096,0.979219962154627,0.957655706057756,0.627847200592518
"270",36.671635,-121.652791,111799,"CET-Salinas","CA",0.2593,0.7407,0.0185,0,0.9815,0,0,0,0,0.6605664488,0.2064714946,"Salinas","93901",2,0.087,1,1,3,5278,24900,0.919770684270027,-0.339394804486722,0.979219962154627,0.957655706057756,0.629312886998922
"271",33.88584,-118.097263,111887,"Cerritos College","CA",0.4536,0.5464,0.0777,0.0518,0.6792,0.0917,0.0213,0.0045,0.0158,0.6185751688,0.0734779566,"Norwalk","90650-6298",1,0.0388,2,2,2,3500,35000,0.98707018166372,0.589862484618092,0.960551019822893,0.978344247746417,0.878956983462781
"273",37.642513,-122.106969,111920,"Chabot College","CA",0.4697,0.5303,0.1845,0.1204,0.3646,0.2339,0.0026,0.017,0.0586,0.5564689064,0.1188829787,"Hayward","94545",1,0.0162,2,2,2,7100,39800,0.978507898698885,0.749373696864784,0.993342553943706,0.996344495604097,0.929392161277868
"274",34.14705,-117.573086,111939,"Chaffey College","CA",0.4179,0.5821,0.1835,0.0841,0.6032,0.0566,0.0021,0.0031,0.0328,0.5838965619,0.0974208807,"Rancho Cucamonga","91737-3002",1,0,2,2,2,3500,34000,0.998337493634271,0.836009930684286,0.981256076640366,0.990248671687524,0.951463043161612
"275",33.793678,-117.851481,111948,"Chapman University","CA",0.404,0.596,0.6049,0.0132,0.1431,0.1029,0.0027,0.0032,0.0602,0.1615541922,0.0078662734,"Orange","92866",2,0.6461,4,3,1,19000,52200,0.999846835054957,0.364133053542616,0.864780713959091,0.759089496642434,0.746962524799774
"276",33.925658,-118.242791,111966,"Charles R Drew University of Medicine and Science","CA",0.5362,0.4638,0.087,0.3188,0.2029,0.1014,0,0,0.2029,0.425,0.0895522388,"Los Angeles","90059",2,0.7529,4,2,1,23750,63900,0.920215151298588,-0.575602430741939,0.975291722107815,0.984854950855132,0.576189848379899
"277",33.6535,-117.81063,112075,"Concordia University-Irvine","CA",0.3646,0.6354,0.4628,0.0324,0.1783,0.0626,0.0042,0.0048,0.0387,0.3009367681,0.0493697479,"Irvine","92612-3203",2,0.6581,4,3,1,17750,47700,0.995359846070872,0.701782335396309,0.932007928426716,0.91223407031412,0.885346045052004
"278",32.84281,-116.978151,112084,"San Diego Christian College","CA",0.4979,0.5021,0.4574,0.1372,0.1989,0.0223,0.0043,0.0128,0.0383,0.3996062992,0.1784452297,"Santee","92071",2,0.8845,4,3,1,15544,37000,0.958296326112276,0.700943462460121,0.994827597427735,0.974873330697474,0.907235179174401
"280",34.135487,-117.885266,112172,"Citrus College","CA",0.4642,0.5358,0.1992,0.0394,0.5962,0.086,0.0019,0.0014,0.0289,0.5652489125,0.0740034331,"Glendora","91741-1899",1,0.0237,2,2,2,5500,32400,0.981676240361491,0.83625984297947,0.961087175451972,0.994712187222167,0.943433861503775
"282",37.725953,-122.451155,112190,"City College of San Francisco","CA",0.4697,0.5303,0.2317,0.079,0.2333,0.3421,0.0024,0.007,0.046,0.5878166213,0.1009458578,"San Francisco","94112-1898",1,0.0521,2,1,2,6033,42900,0.978507898698885,0.315862402822903,0.983661188758153,0.989137966501876,0.816792364195454
"285",36.27164,-119.312151,112288,"Milan Institute-Visalia","CA",0.0966,0.9034,0.1477,0.0284,0.7727,0.0142,0.0114,0.0114,0,0.6223529412,0.1821164889,"Visalia","93277",3,0.6195,1,1,3,8919,26100,0.620980261118297,0.430141018339217,0.993377047186179,0.976764310578982,0.755315659305669
"287",33.609771,-117.861844,112385,"Coastline Community College","CA",0.5852,0.4148,0.3216,0.1204,0.262,0.2224,0.0076,0.0037,0.0371,0.5541880342,0.4221871714,"Fountain Valley","92708-2597",1,0.0391,2,2,2,6000,36800,0.853640433403725,0.778249555348498,0.509822199131306,0.996719373946777,0.784607890457577
"288",37.413664,-121.940553,112394,"Cogswell College","CA",0.7545,0.2455,0.4168,0.0428,0.1697,0.1499,0.0016,0.0231,0.1071,0.3237179487,0.0300546448,"San Jose","95134",3,0.5887,4,3,1,12500,65800,0.469358330261796,0.5872007991359,0.903568251336131,0.930065446029243,0.722548206690768
"289",32.821962,-117.136493,112446,"Coleman University","CA",0.9102,0.0898,0.4922,0.0801,0.1875,0.1406,0.0078,0.0078,0.0039,0.3727598566,0.284375,"San Diego","92123-1506",2,0.7938,4,2,1,19000,47100,-0.0952636912659994,0.67529227286992,0.881018330049369,0.96158767124042,0.605658645723427
"293",34.179596,-118.538394,112570,"Columbia College-Hollywood","CA",0.5798,0.4202,0.4365,0.1889,0.2085,0.0326,0,0,0.0554,0.3945945946,0.0458715596,"Tarzana","91356-1411",2,0.7229,3,3,1,23192.5,35400,0.861959941238625,0.644902810541353,0.927224719572411,0.972606405287287,0.851673469159919
"294",33.876665,-118.209186,112686,"El Camino College-Compton Center","CA",0.3644,0.6356,0.0296,0.3515,0.5303,0.0459,0.0015,0.0067,0.0276,0.583488806,0.0569578758,"Compton","90221-5393",1,0,2,2,2,3873,34900,0.995304012216852,-0.0432474592472427,0.941824656143786,0.990360765893954,0.721060493751837
"295",37.968623,-122.342386,112826,"Contra Costa College","CA",0.4099,0.5901,0.1097,0.2248,0.3705,0.1894,0.0019,0.0064,0.0531,0.5679012346,0.1003917728,"San Pablo","94806-3195",1,0.0173,2,2,2,4900.5,36300,0.999403187258294,0.605052857683363,0.983294068136174,0.994159999292586,0.895477528092604
"296",38.453836,-121.422971,113096,"Cosumnes River College","CA",0.4338,0.5662,0.2532,0.1327,0.2358,0.2701,0.0055,0.0192,0.0591,0.5077508043,0.1345818815,"Sacramento","95823-5799",1,0.0483,2,2,2,5500,32100,0.994633305151783,0.590921895522499,0.998308187086847,0.999943027734096,0.895951603873806
"298",35.329859,-120.741624,113193,"Cuesta College","CA",0.4732,0.5268,0.6152,0.0127,0.2701,0.0323,0.0056,0.0017,0.0509,0.4402257568,0.1195700851,"San Luis Obispo","93403-8106",1,0.0514,2,2,2,6500,38700,0.976360203537827,0.426093754208477,0.993628406420068,0.989634601788377,0.846429241488687
"299",32.743072,-116.941044,113218,"Cuyamaca College","CA",0.4674,0.5326,0.4613,0.0579,0.3313,0.0605,0.0041,0.0049,0.0598,0.6077322018,0.2789757412,"El Cajon","92019",1,0.0114,2,2,2,3500,32600,0.979863561454133,0.823083846218727,0.890424810612552,0.982570050770668,0.91898556726402
"300",33.827625,-118.023889,113236,"Cypress College","CA",0.4412,0.5588,0.2058,0.0426,0.4404,0.2268,0.0024,0.0045,0.0357,0.5560231457,0.0822772078,"Cypress","90630-5897",1,0.0216,2,2,2,6000,37900,0.992189679983923,0.779072133667315,0.969045486103828,0.996419353788511,0.934181663385894
"301",37.319176,-122.045365,113333,"De Anza College","CA",0.5165,0.4835,0.2063,0.0334,0.2547,0.3497,0.0015,0.0038,0.0467,0.5218736191,0.0667011375,"Cupertino","95014",1,0.0415,2,2,2,5501,48800,0.941331995458653,0.24403838260904,0.953307753337545,0.999851965144273,0.784632524137378
"302",33.746002,-116.999892,113397,"Marinello Schools of Beauty-Hemet","CA",0.0359,0.9641,0.3774,0.1007,0.4405,0.0359,0.0105,0.0035,0.0053,0.5529237602,0.2047325103,"Hemet","92545",3,0.6842,1,1,3,7000,17400,0.452908120607084,0.886158605475363,0.980492050294501,0.996918432574114,0.829119302237765
"305",33.732484,-116.38761,113573,"College of the Desert","CA",0.4695,0.5305,0.2055,0.0299,0.6682,0.0312,0.0041,0.0019,0.0223,0.6317962836,0.0892401836,"Palm Desert","92260",1,0,2,2,2,4957,34600,0.978627535453258,0.698017602502047,0.975038229558319,0.972571622509828,0.906063747505863
"307",37.968035,-122.069861,113634,"Diablo Valley College","CA",0.4897,0.5103,0.3846,0.0542,0.2275,0.1531,0.0019,0.0043,0.0759,0.4582818294,0.1078104994,"Pleasant Hill","94523",1,0.0137,2,1,2,3933.5,44600,0.964857969080077,0.791844582346284,0.987871207810968,0.994131680945443,0.934676360045693
"308",37.980014,-122.514654,113698,"Dominican University of California","CA",0.2604,0.7396,0.3287,0.0401,0.2106,0.2023,0.0041,0.011,0.0449,0.328358209,0.0433333333,"San Rafael","94901-2298",2,0.6988,4,3,1,25000,58400,0.921038726655773,0.761955445716376,0.923652325777145,0.933449528887528,0.885024006759205
"310",34.039205,-118.148384,113856,"East Los Angeles College","CA",0.5204,0.4796,0.0709,0.0444,0.6459,0.1024,0.002,0.0019,0.0036,0.7045718714,0.0643953575,"Monterey Park","91754-6099",1,0.0137,2,1,2,5856,34600,0.93740869896922,0.628459471501654,0.950704151912305,0.928600247393386,0.861293142444141
"312",33.885586,-118.326623,113980,"El Camino Community College District","CA",0.4832,0.5168,0.1354,0.1539,0.4962,0.1302,0.0014,0.0049,0.0447,0.583488806,0.0569578758,"Torrance","90506",1,0,2,2,2,3873,34900,0.96966045562309,0.841264207672569,0.941824656143786,0.990360765893954,0.93577752133335
"313",34.062216,-118.338332,114044,"Elegance International","CA",0.1016,0.8984,0.2246,0.107,0.4947,0.0321,0.0107,0.0027,0.0909,0.5142857143,0.0689045936,"Hollywood","90028-6106",3,0.7744,1,1,3,6333,20600,0.633453628750299,0.828434820828436,0.955729812997924,0.999997520924264,0.854403945875231
"314",34.181902,-118.309749,114071,"Marinello Schools of Beauty-Burbank","CA",0.0352,0.9648,0.3474,0.1244,0.4742,0.0235,0.0047,0.0023,0.0235,0.5680147059,0.1629526462,"Burbank","91502",3,0.7196,1,1,3,9143,16900,0.450790497567988,0.888462933514086,0.99897666210144,0.994135764078042,0.833091464315389
"315",33.915981,-117.228072,114080,"Marinello Schools of Beauty-Moreno Valley","CA",0.0659,0.9341,0.2093,0.1628,0.5465,0.031,0.0155,0.0039,0.0155,0.5448916409,0.1291028446,"Moreno Valley","92553",3,0.7851,1,1,3,8026,17800,0.539819235044953,0.796540275037691,0.996947102349201,0.998037571124799,0.832836045889161
"317",38.467789,-122.728642,114123,"Empire College","CA",0.1971,0.8029,0.5255,0.0316,0.3796,0.0243,0.0122,0.0243,0.0024,0.5284552846,0.1782477341,"Santa Rosa","95403-2126",3,0.4458,2,1,2,13000,33000,0.831634935495312,0.625154897358509,0.994900554412925,0.999543975414866,0.862808590670403
"318",37.301736,-121.766686,114266,"Evergreen Valley College","CA",0.4668,0.5332,0.0796,0.0296,0.4057,0.3825,0.0042,0.0051,0.0269,0.638209266,0.1701524282,"San Jose","95135-1598",1,0.0153,2,2,2,6000,40000,0.980209950027786,-0.00551822354228504,0.997445102913491,0.969526206223501,0.735415758905623
"319",34.044209,-118.25993,114354,"Fashion Institute of Design & Merchandising-Los Angeles","CA",0.1038,0.8962,0.3533,0.0554,0.2253,0.1171,0.0035,0.0073,0.0306,0.3405762872,0.0307298335,"Los Angeles","90015-1421",3,0.5698,3,2,1,12000,41800,0.638875795987995,0.88446296679579,0.904646005003693,0.941958627863565,0.842485848912761
"320",37.786324,-122.406503,114390,"Fashion Institute of Design & Merchandising-San Francisco","CA",0.0778,0.9222,0.351,0.0342,0.2372,0.1935,0.0057,0.0228,0.0398,0.3405762872,0.0307298335,"San Francisco","94108-5805",3,0.6295,3,2,1,12000,41800,0.572212830576984,0.770789527080312,0.904646005003693,0.941958627863565,0.797401747631139
"321",33.691963,-117.852254,114415,"Fashion Institute of Design & Merchandising-Orange County","CA",0.0641,0.9359,0.4551,0.0192,0.2564,0.1154,0.0064,0.0256,0.0641,0.3405762872,0.0307298335,"Irvine","92614-5610",3,0.771,3,2,2,12000,41800,0.534816435164457,0.729788889055777,0.904646005003693,0.941958627863565,0.777802489271873
"322",39.952395,-120.970877,114433,"Feather River Community College District","CA",0.569,0.431,0.5554,0.1393,0.175,0.0298,0.0227,0.0123,0.0032,0.4647302905,0.0914076782,"Quincy","95971-9124",1,0.1681,2,2,2,6964,28900,0.877868691978729,0.452443271261672,0.976772240930056,0.99542981700726,0.825628505294429
"323",38.64883,-121.497761,114460,"Federico Beauty Institute","CA",0.1343,0.8657,0.4417,0.0707,0.3675,0.0565,0.0141,0.0071,0.0389,0.5117056856,0.1800486618,"Sacramento","95834",3,0.6612,1,1,3,6333,26200,0.709883915211053,0.868648223983965,0.994216090529329,0.999995890777841,0.893186030125547
"327",37.361104,-122.12833,114716,"Foothill College","CA",0.5154,0.4846,0.3394,0.0385,0.231,0.2253,0.0019,0.0068,0.0525,0.4874770922,0.1025024062,"Los Altos Hills","94022",1,0.0413,2,2,2,6500,57200,0.942415609832676,0.712164596410494,0.984670689161379,0.998714821252724,0.909491429164319
"330",36.767516,-119.795129,114789,"Fresno City College","CA",0.4812,0.5188,0.2341,0.0591,0.5094,0.1477,0.0057,0.0019,0.0262,0.5375017723,0.0932804083,"Fresno","93741",1,0.0227,2,2,2,3000,31000,0.97106718754986,0.917103265623882,0.978220178101849,0.998845134488127,0.966308941440929
"331",36.725279,-119.731953,114813,"Fresno Pacific University","CA",0.3121,0.6879,0.3681,0.0541,0.4184,0.0388,0.0104,0.0069,0.02,0.4746932515,0.2896379526,"Fresno","93702-4709",2,0.6761,4,3,1,16500,41300,0.969242983106306,0.907827607282757,0.871476565216143,0.997116827234082,0.936415995709822
"333",33.876794,-117.916986,114859,"Fullerton College","CA",0.4863,0.5137,0.2326,0.0312,0.5158,0.1368,0.0027,0.0035,0.0319,0.5630897169,0.0643766218,"Fullerton","92832-2095",1,0.0259,2,2,2,4750,37200,0.967414031833108,0.896936441745296,0.950682706953536,0.995141465712144,0.952543661561021
"334",36.973274,-121.568174,114938,"Gavilan College","CA",0.4857,0.5143,0.3054,0.0227,0.561,0.0524,0.0048,0.004,0.0185,0.6130811663,0.0906344411,"Gilroy","95020",1,0.017,2,2,2,5825,30800,0.967855084379128,0.845152200323901,0.976160807110542,0.980542679331583,0.942427692786288
"335",33.131313,-117.318765,114947,"Gemological Institute of America-Carlsbad","CA",0.4465,0.5535,0.3349,0.0186,0.0605,0.0884,0.0093,0,0.0372,0.2892561983,0.1029411765,"Carlsbad","92008",2,0.1995,1,1,3,8233,45100,0.990158571039681,0.632167053589486,0.984949438293682,0.902306985384088,0.877395512076734
"336",34.166422,-118.228251,115001,"Glendale Community College","CA",0.4476,0.5524,0.461,0.0246,0.3075,0.102,0.0013,9e-04,0.0282,0.580443828,0.1701707098,"Glendale","91208-2894",1,0.0161,2,2,2,5250,36000,0.989707635895443,0.796829153805963,0.997440337438692,0.991177358252371,0.943788621348117
"337",34.1497,-118.254231,115010,"Glendale Career College","CA",0.237,0.763,0.1792,0.0578,0.5578,0.1301,0,0.0029,0,0.5464480874,0.1896758703,"Glendale","91203",3,0.7213,1,1,2,9500,31100,0.89188598414772,0.831076365038949,0.989826317232793,0.997840348111463,0.927657253632731
"338",37.789208,-122.398785,115083,"Golden Gate University-San Francisco","CA",0.4751,0.5249,0.2697,0.1183,0.1618,0.1535,0.0041,0.0394,0.0394,0.4507772021,0.2663755459,"San Francisco","94105-2968",2,0.6695,4,3,1,20078,75900,0.975151487700991,0.728215492660319,0.910870072501044,0.992416873057939,0.901663481480073
"339",33.733775,-118.003036,115126,"Golden West College","CA",0.4721,0.5279,0.3108,0.0201,0.3143,0.2718,0.0031,0.0051,0.0447,0.5388757994,0.0939934657,"Huntington Beach","92647-2710",1,0.0236,2,1,2,4967.5,36600,0.977046212532319,0.613470693708785,0.978759244155902,0.998711089048515,0.89199680986138
"341",32.816077,-117.007292,115296,"Grossmont College","CA",0.444,0.556,0.411,0.0665,0.3254,0.0835,0.0026,0.0048,0.0647,0.5729029425,0.1735620585,"El Cajon","92020-1799",1,0.018,2,2,2,3500,37800,0.991145858571821,0.887474116308089,0.996479501319565,0.993044088640901,0.967035891210094
"343",36.673052,-121.668763,115393,"Hartnell College","CA",0.5162,0.4838,0.148,0.0207,0.6786,0.0444,0.0019,0.0035,0.0191,0.6756453423,0.0873330927,"Salinas","93901",1,0,2,2,2,4500,34600,0.941628528386726,0.641907783495856,0.973460925096407,0.948549557662159,0.876386698660287
"345",38.594382,-121.280086,115454,"Heald College-Rancho Cordova","CA",0.2799,0.7201,0.1827,0.1183,0.0913,0.0574,0.0117,0.0211,0.0211,0.5363278975,0.1818086665,"Rancho Cordova","95670",3,0.7882,2,2,2,9500,35900,0.941841005638039,0.680950304954195,0.993505548291694,0.998953825289702,0.903812671043407
"346",36.822401,-119.795525,115472,"Heald College-Fresno","CA",0.2959,0.7041,0.1322,0.0776,0.6018,0.0669,0.0092,0.0031,0.0054,0.5363278975,0.1818086665,"Fresno","93704",3,0.7873,2,2,2,9500,31700,0.956538769033184,0.774856222232745,0.993505548291694,0.998953825289702,0.930963591211831
"347",37.410897,-121.893911,115490,"Heald College-San Jose","CA",0.3421,0.6579,0.0622,0.0255,0.299,0.1292,0.0064,0.0104,0.0287,0.5363278975,0.1818086665,"Milpitas","95035-8008",3,0.7657,2,2,2,9500,43800,0.986984284930343,0.749061907687459,0.993505548291694,0.998953825289702,0.932126391549799
"348",37.782001,-122.404246,115515,"Heald College-San Francisco","CA",0.3583,0.6417,0.1176,0.1805,0.2941,0.262,0.0107,0.0495,0.0321,0.5363278975,0.1818086665,"San Francisco","94103",3,0.7248,2,2,2,9500,38900,0.99344067682718,0.354364364877568,0.993505548291694,0.998953825289702,0.835066103821536
"349",38.018938,-122.030047,115533,"Heald College-Concord","CA",0.2829,0.7171,0.2179,0.1797,0.2472,0.0911,0.0081,0.0301,0.052,0.5363278975,0.1818086665,"Concord","94520-0522",3,0.7795,2,2,2,9500,41900,0.944759618237695,0.792759511389358,0.993505548291694,0.998953825289702,0.932494625802112
"351",37.802654,-122.18717,115728,"Holy Names University","CA",0.3739,0.6261,0.2087,0.2,0.3058,0.1478,0.0072,0.0391,0.0261,0.4489795918,0.076142132,"Oakland","94619-1699",2,0.8333,4,3,1,20250,53300,0.997587356528001,0.714298857901351,0.963231489265705,0.991973532899568,0.916772809148656
"353",40.8741,-124.0814,115755,"Humboldt State University","CA",0.4588,0.5412,0.4738,0.0391,0.2977,0.0347,0.01,0.0026,0.0637,0.4477713508,0.0342465753,"Arcata","95521-8299",1,0.5625,4,3,1,14200,38600,0.984541300264714,0.738032105521097,0.910161592701708,0.991668470085259,0.906100867143194
"354",38.011051,-121.316401,115773,"Humphreys College-Stockton and Modesto Campuses","CA",0.2853,0.7147,0.2204,0.1378,0.3857,0.0583,0.0032,0.0065,0,0.537037037,0.21875,"Stockton","95207-3896",2,0.769,4,3,1,21146,32600,0.947040414618924,0.90843909262055,0.969094782751448,0.998888807239773,0.955865774307674
"356",37.368642,-121.969541,115931,"Institute for Business and Technology","CA",0.6429,0.3571,0.2041,0.0357,0.5102,0.1429,0.0051,0,0.0153,0.5281030445,0.2249408051,"Santa Clara","95051-1303",3,0.4866,1,1,3,7600,37100,0.749548337028726,0.873005768409951,0.963230153885482,0.999564734509099,0.896337248458315
"357",33.641393,-117.865722,116226,"Interior Designers Institute","CA",0.069,0.931,0.6601,0.0148,0.1527,0.1084,0.0049,0,0.0246,0.3802816901,0.2345679012,"Newport Beach","92660",3,0.4068,4,2,1,23500,41800,0.548371766684808,0.24600055735891,0.953098726514023,0.965593304776748,0.678266088833622
"359",33.675079,-117.778575,116439,"Irvine Valley College","CA",0.5013,0.4987,0.3486,0.0219,0.2471,0.2476,7e-04,0.002,0.0486,0.445324097,0.110974611,"Irvine","92618-0301",1,0.014,2,1,2,6000,41100,0.955411026404202,0.632117263665359,0.989600939852975,0.991033141952058,0.892040592968649
"360",32.66182,-117.106121,116466,"ITT Technical Institute-National City","CA",0.7868,0.2132,0.2482,0.1742,0.3243,0.1522,0.015,0.009,0.043,0.4972857507,0.2337406569,"National City","91950",3,0.5434,3,2,1,13566,42800,0.368863765077091,0.865471207516661,0.954017663877175,0.999509074179081,0.796965427662502
"361",34.102405,-117.818401,116475,"ITT Technical Institute-San Dimas","CA",0.7677,0.2323,0.2069,0.0544,0.5789,0.0853,0.0018,0.0018,0.0254,0.4972857507,0.2337406569,"San Dimas","91773",3,0.8052,3,2,1,13566,42800,0.429341666653302,0.870040378354894,0.954017663877175,0.999509074179081,0.813227195766113
"362",33.77999,-117.896171,116484,"ITT Technical Institute-Orange","CA",0.8008,0.1992,0.2912,0.0536,0.4777,0.1188,0.0102,0.0013,0.0255,0.4972857507,0.2337406569,"Orange","92868",3,0.7959,3,2,1,13566,42800,0.322600229503464,0.951070639165613,0.954017663877175,0.999509074179081,0.806799401681333
"363",32.794827,-116.945728,116563,"Bellus Academy-El Cajon","CA",0.0414,0.9586,0.5103,0.0621,0.2966,0,0.0069,0.0207,0.0966,0.4824120603,0.2291666667,"El Cajon","92021",3,0.5812,1,1,2,7917,25000,0.469404257472571,0.559749331164306,0.958934532737368,0.998157873859351,0.746561498808399
"364",37.881794,-122.183972,116712,"John F. Kennedy University","CA",0.3108,0.6892,0.3665,0.1554,0.259,0.0837,0.0159,0.012,0.0359,0.5486725664,0.3333333333,"Pleasant Hill","94523-4817",2,0.9319,4,3,1,20832,52100,0.968304357512465,0.861027882923297,0.778046122260863,0.9975420863943,0.901230112272732
"366",36.605968,-119.45993,117052,"Reedley College","CA",0.4224,0.5776,0.2953,0.0256,0.566,0.0704,0.0043,0.0014,0.0275,0.5276170437,0.0898600076,"Reedley","93654",1,0.0153,2,2,2,3500,29100,0.997503259293258,0.8630276434266,0.975540465494341,0.999592582843285,0.958915987764371
"367",34.089421,-117.830997,117104,"Life Pacific College","CA",0.4656,0.5344,0.5365,0.0397,0.2902,0.0543,0.0021,0.0188,0.0355,0.385665529,0.0536277603,"San Dimas","91773-3298",2,0.5927,4,3,1,15245,33500,0.980893711558674,0.670515307450046,0.93761069192245,0.96832498212248,0.889336173263413
"368",32.778278,-117.155395,117113,"Argosy University-The Art Institute of California-San Diego","CA",0.5435,0.4565,0.0092,0.0037,0.3452,0.0061,0.0012,0.0012,0,0.5099347495,0.1975711015,"San Diego","92108-4423",3,0.6426,3,3,1,10000,41300,0.911567452830148,0.514087036412989,0.985307305289883,0.999979756421547,0.852735387738642
"369",34.10086,-117.772634,117140,"University of La Verne","CA",0.4267,0.5733,0.2389,0.065,0.4812,0.0526,0.0037,0.0047,0.0319,0.4738821563,0.2078389069,"La Verne","91750-4401",2,0.6662,4,3,1,21012.5,54100,0.996548161790928,0.943879699456184,0.978191467008672,0.996993951348614,0.9789033199011
"372",34.695646,-118.148664,117238,"Lancaster Beauty School","CA",0.2581,0.7419,0.2097,0.2742,0.5081,0.0081,0,0,0,0.497005988,0.1581395349,"Lancaster","93534",3,0.697,1,1,3,6940.5,19600,0.91837584534945,0.450512925074615,0.999616443645289,0.999491615436427,0.841999207376445
"373",37.796205,-122.262434,117247,"Laney College","CA",0.4547,0.5453,0.174,0.2471,0.1943,0.2618,0.0028,0.0046,0.0535,0.567251462,0.1722689076,"Oakland","94607",1,0.0191,2,2,2,7500,33700,0.986554050256326,0.307827858242389,0.99686390012517,0.994297811368788,0.821385904998168
"374",40.431327,-120.631169,117274,"Lassen Community College","CA",0.7577,0.2423,0.4134,0.2025,0.2292,0.0367,0.024,0.017,0.0284,0.4897494305,0.1141804788,"Susanville","96130",1,0.0386,2,2,2,5500,32500,0.459790885589805,0.631621885414538,0.991217845840303,0.998932195040822,0.770390702971367
"378",33.908834,-117.497071,117627,"La Sierra University","CA",0.4202,0.5798,0.148,0.0735,0.4323,0.1543,0.0029,0.0185,0.0385,0.3965341488,0.0294882914,"Riverside","92515-8247",2,0.695,4,3,1,14500,46000,0.997932227109542,0.891149135899767,0.90265955255204,0.973495328148863,0.941309060927553
"379",34.050975,-117.261086,117636,"Loma Linda University","CA",0.2945,0.7055,0.3523,0.0395,0.2936,0.2397,0.001,0.0038,0.0452,0.3554817276,0.1476407915,"Loma Linda","92350",2,0.6754,4,3,1,19500,85800,0.955338029180342,0.711651298974218,0.999944134684179,0.951551456918913,0.904621229939413
"380",33.831741,-118.135819,117645,"Long Beach City College","CA",0.4551,0.5449,0.1496,0.1333,0.5403,0.1133,0.0022,0.0072,0.0423,0.5653074434,0.058316885,"Long Beach","90808-1706",1,0.0408,2,1,2,4500,32100,0.986363861770289,0.863879284332012,0.94350202996308,0.994700297500643,0.947111368391506
"382",33.784201,-118.28186,117690,"Los Angeles Harbor College","CA",0.4061,0.5939,0.1346,0.1124,0.5751,0.1064,0.0017,0.0087,0.0327,0.5853444493,0.0708215297,"Wilmington","90744-2397",1,0.0126,2,2,2,3500,35600,0.999722234211143,0.837825607481528,0.957784459484725,0.989845404207412,0.946294426346202
"383",34.184184,-118.577194,117706,"Los Angeles Pierce College","CA",0.4607,0.5393,0.2899,0.059,0.4616,0.1106,0.002,0.0015,0.0314,0.5508091833,0.112670068,"Woodland Hills","91371-0002",1,0.0521,2,2,2,9500,38100,0.98356098004375,0.966044405514841,0.990473068553259,0.997237447229097,0.984328975335237
"384",33.929586,-118.304674,117715,"Los Angeles Southwest College","CA",0.302,0.698,0.0177,0.5742,0.3277,0.02,0.002,0.0025,0.025,0.5869660942,0.0673846154,"Los Angeles","90047-4899",1,0.0315,2,2,2,3500,30200,0.961579608341917,-1.88709185552799,0.954065939600998,0.989384041444527,0.254484433464863
"385",34.032623,-118.269113,117724,"Los Angeles Trade Technical College","CA",0.5403,0.4597,0.0637,0.2133,0.6047,0.0472,0.0027,0.0023,0.0202,0.6194180351,0.08125,"Los Angeles","90015-4181",1,0.049,2,1,2,4500,31400,0.915412986283453,0.522472456697415,0.968106890475075,0.97799656543793,0.845997224723468
"386",34.176406,-118.421446,117733,"Los Angeles Valley College","CA",0.4346,0.5654,0.3012,0.0544,0.4924,0.0797,0.0017,0.0016,0.0213,0.5727190605,0.1509751177,"Valley Glen","91401-4096",1,0.0372,2,1,2,6750,36700,0.994391167631421,0.940968444284503,0.999998746931618,0.993086840195852,0.982111299760849
"387",34.38214,-118.517422,117751,"The Master's College and Seminary","CA",0.5474,0.4526,0.6184,0.0313,0.1041,0.0635,0.0025,0.0051,0.0643,0.2224576271,0.0824949698,"Santa Clarita","91321-1200",2,0.5171,4,3,1,16500,47800,0.906765133740155,0.289089985765932,0.969242661957699,0.835320447769636,0.750104557308355
"388",34.087301,-118.292169,117788,"Los Angeles City College","CA",0.4392,0.5608,0.1866,0.1018,0.5017,0.1328,0.0025,0.0014,0.0228,0.5674664319,0.130143249,"Los Angeles","90029",1,0.0505,2,1,2,7500,31900,0.99289519730056,0.91543882972106,0.997236232156333,0.994252399951085,0.97495566478226
"389",34.061605,-118.211418,117803,"Los Angeles County College of Nursing and Allied Health","CA",0.2157,0.7843,0.2206,0.049,0.3873,0.3333,0.0049,0,0.0049,0.5084745763,0.2537313433,"Los Angeles","90033-1084",1,0.3622,2,2,2,10500,83300,0.861375504817176,0.373027419954901,0.929266417113926,0.999957259301096,0.790906650296775
"390",34.314944,-118.419087,117867,"Los Angeles Mission College","CA",0.3953,0.6047,0.1115,0.0318,0.7599,0.0527,0.0015,7e-04,0.01,0.7049486461,0.1417541692,"Sylmar","91342-3200",1,0.0308,2,2,2,8000,32200,0.999970859236663,0.4801855840706,0.999487150578978,0.92831888773672,0.85199062040574
"391",38.005552,-121.861122,117894,"Los Medanos College","CA",0.4681,0.5319,0.2854,0.154,0.3705,0.0924,0.0012,0.0063,0.0735,0.5244969379,0.1047819972,"Pittsburg","94565",1,0.0077,2,2,2,3500,40900,0.979455643205734,0.91086763585023,0.986091029848798,0.999749442165763,0.969040937767631
"392",37.803958,-122.417185,117928,"Argosy University-The Art Institute of California-San Francisco","CA",0.5361,0.4639,0.1473,0.0703,0.2947,0.0922,0.0029,0.0133,0.076,0.5099347495,0.1975711015,"San Francisco","94102-4908",3,0.8221,4,3,1,10000,41300,0.920330524238042,0.859558817517902,0.985307305289883,0.999979756421547,0.941294100866844
"393",33.970633,-118.415655,117946,"Loyola Marymount University","CA",0.426,0.574,0.4672,0.0579,0.2192,0.107,0.002,0.001,0.0768,0.1998933902,0.0191628845,"Los Angeles","90045-2659",2,0.4535,4,3,1,19500,64400,0.996714160998831,0.722465576268963,0.885345662765644,0.808763314272472,0.853322178576478
"397",36.836251,-119.773747,118143,"Lyles Fresno College of Beauty","CA",0.098,0.902,0.3529,0.0588,0.451,0.0392,0,0.0196,0.0784,0.6134453782,0.2147239264,"Fresno","93710",3,0.4239,1,1,3,6857,19000,0.624493840493562,0.860152421195317,0.972635492850088,0.980400580360198,0.859420583724791
"398",38.508581,-122.758546,118161,"Lytles Redwood Empire Beauty College Inc","CA",0.053,0.947,0.7197,0.0303,0.1818,0.0227,0.0152,0,0,0.4661654135,0.1503267974,"Santa Rosa","95403",3,0.5971,1,1,3,8255,22600,0.503368175663153,0.0246576976750332,0.999999695802485,0.995696673179303,0.630930560579994
"399",38.007318,-121.308527,118189,"MTI Business College Inc","CA",0.0274,0.9726,0.2397,0.5137,0.1438,0.0479,0.0342,0.0205,0,0.4876033058,0.1122994652,"Stockton","95207-4349",3,1,1,1,3,9500,25800,0.426917397223699,-1.32070969631344,0.990285695155372,0.998727422801139,0.273805204716693
"400",38.661377,-121.342568,118198,"MTI College","CA",0.2775,0.7225,0.5108,0.099,0.2039,0.0873,0.0049,0.0029,0.0539,0.467230444,0.2420168067,"Sacramento","95841-9817",3,0.3483,2,1,2,8263.5,36800,0.939452021859818,0.695361241713872,0.944414660601187,0.995889522997921,0.8937793617932
"401",38.644462,-121.380453,118259,"Brightwood College-Sacramento","CA",0.1408,0.8592,0.2347,0.1854,0.4014,0.0962,0.0117,0.0164,0,0.6404833837,0.169198895,"Sacramento","95821",3,0.6537,2,1,2,9334,28400,0.724012970972685,0.850401099990133,0.997687505415541,0.968407768519854,0.885127336224553
"402",32.821707,-117.133017,118277,"Brightwood College-San Diego","CA",0.2444,0.7556,0.2856,0.0996,0.3245,0.2086,0.0093,0.0233,0,0.487704918,0.2664092664,"San Diego","92123",3,0.5589,2,1,2,9476.5,39000,0.901599416849252,0.805945351371336,0.910818171959791,0.998737522958609,0.904275115784747
"403",33.17244,-117.220816,118286,"Brightwood College-Vista","CA",0.2699,0.7301,0.3458,0.107,0.403,0.0659,0.0162,0.0348,0,0.5644937587,0.2474934037,"Vista","92083-7736",3,0.5444,2,1,2,8630,32100,0.931569690428962,0.85281890862462,0.937559723691536,0.99486438859393,0.929203177834762
"404",37.955014,-122.549936,118347,"College of Marin","CA",0.412,0.588,0.5385,0.0682,0.2305,0.0699,0.0024,0.0024,0.0517,0.4647177419,0.090541633,"Kentfield","94904-2590",1,0.0925,2,2,2,10062.5,39100,0.999175157259485,0.657404269472672,0.976086885600486,0.995427448237464,0.907023440142527
"405",34.027512,-118.219865,118356,"Marinello Schools of Beauty-Los Angeles","CA",0.1282,0.8718,0.2072,0.1765,0.5378,0.0311,0.0065,0.0017,0.0047,0.5654697135,0.1575203252,"Los Angeles","90023",3,0.7236,1,1,3,8555,18500,0.696303534119848,0.772894663933619,0.999676407516188,0.994667264811748,0.865885467595351
"406",33.73463,-118.333404,118541,"Marymount California University","CA",0.4641,0.5359,0.1934,0.082,0.3517,0.0387,0.0028,0.0083,0.0304,0.4276923077,0.0305343511,"Rancho Palos Verdes","90275-6299",2,0.5702,3,3,1,12524,39200,0.981731509191505,0.92819611538012,0.904334593855547,0.985765874148815,0.950007023143997
"407",39.19119,-123.22903,118684,"Mendocino College","CA",0.3792,0.6208,0.6074,0.0327,0.2504,0.026,0.0508,0.0067,0.0146,0.5420168067,0.131897712,"Ukiah","95482",1,0.0558,2,2,2,7000,29200,0.998533821861001,0.139084055820557,0.99769122731628,0.998377026746269,0.783421532936027
"410",37.789088,-122.167335,118772,"Merritt College","CA",0.3404,0.6596,0.1896,0.2961,0.2422,0.1513,0.0041,0.0053,0.0491,0.5377113134,0.1056724611,"Oakland","94619-3196",1,0.0443,2,1,2,8970,39700,0.986179750653728,0.41541205849408,0.986627098405515,0.998825167868882,0.846761018855551
"411",37.782639,-122.18789,118888,"Mills College","CA",0,1,0.4488,0.0671,0.2321,0.1133,0.0055,0.0055,0.1034,0.322515213,0.0371681416,"Oakland","94613",2,0.7272,4,3,1,18750,46500,0.33902984094406,0.691694515163996,0.91461876986729,0.929174611397023,0.718629434343092
"412",33.191231,-117.302283,118912,"MiraCosta College","CA",0.4359,0.5641,0.4598,0.034,0.3329,0.0621,0.003,0.0046,0.0702,0.5070185289,0.2072213501,"Oceanside","92056-3899",1,0.0194,2,1,2,4500,31100,0.99398629942342,0.78533637950377,0.978659036641167,0.999926551186929,0.939477066688821
"413",37.78123,-122.410821,118921,"Marinello Schools of Beauty-San Francisco","CA",0.0879,0.9121,0.4075,0.1103,0.3551,0.0523,0.0206,0.0019,0.0093,0.5124309392,0.1745867769,"San Francisco","94103",3,0.6552,1,1,3,6532,35200,0.598779114716104,0.851180272771341,0.996159118548654,0.999998970398096,0.861529369108549
"414",37.391323,-121.982174,118930,"Mission College","CA",0.4511,0.5489,0.1799,0.038,0.2503,0.4391,0.0016,0.0055,0.0422,0.5454545455,0.1666666667,"Santa Clara","95054-1897",1,0.0048,2,2,2,4500,40600,0.988205642521216,-0.301764586158128,0.998272602422524,0.997967333287976,0.670670248018397
"416",34.182673,-118.396131,118967,"Brightwood College-North Hollywood","CA",0.4422,0.5578,0.2404,0.0476,0.5141,0.1375,0.0039,0.0231,0,0.5804540967,0.1402616279,"North Hollywood","91606-3231",3,0.6766,1,1,2,9400.5,39400,0.991824399636138,0.868949594579443,0.999298122230566,0.991174665152565,0.962811695399678
"420",36.590826,-121.885774,119067,"Monterey Peninsula College","CA",0.4655,0.5345,0.4211,0.0392,0.3615,0.0791,0.0033,0.0103,0.0515,0.5133767173,0.1133222775,"Monterey","93940-4799",1,0.0221,2,2,2,6500,40500,0.980950149079705,0.881875956582914,0.990798388455378,0.999999906620799,0.963406100184699
"421",34.300018,-118.836624,119137,"Moorpark College","CA",0.4857,0.5143,0.5149,0.0195,0.3145,0.085,0.003,0.0023,0.0489,0.4837758112,0.0796946565,"Moorpark","93021-1695",1,0.0184,2,2,2,6000,42400,0.967855084379128,0.711158515473599,0.966659036653296,0.998317667361623,0.910997575966912
"422",34.043786,-117.8437,119164,"Mt San Antonio College","CA",0.484,0.516,0.1239,0.042,0.5925,0.1783,0.0016,0.0028,0.0303,0.5811606392,0.0804409219,"Walnut","91789-1399",1,0.0111,2,2,2,4500,39000,0.969088413324247,0.719230266513287,0.967357738491368,0.990988378271769,0.911666199150168
"423",34.082112,-118.480471,119173,"Mount Saint Mary's University","CA",0.0666,0.9334,0.1012,0.0703,0.598,0.1666,0.0038,0.0056,0.0199,0.4889228419,0.0883807169,"Los Angeles","90049-1599",2,0.9154,4,3,1,21000,57000,0.541757464012957,0.725294362434642,0.97433336846469,0.99885545167859,0.81006016164772
"424",33.807364,-116.970063,119216,"Mt San Jacinto Community College District","CA",0.4226,0.5774,0.3417,0.0795,0.4471,0.0518,0.005,0.004,0.0551,0.5362394049,0.1533305977,"San Jacinto","92583-2399",1,0,2,2,2,5250,32000,0.997462258748735,0.942412751550943,0.999948299661049,0.998961801258588,0.984696277804829
"426",34.101527,-118.33783,119270,"Musicians Institute","CA",0.7962,0.2038,0.2939,0.0657,0.138,0.031,0.0103,0.0038,0.0601,0.3727034121,0.0494699647,"Hollywood","90028",3,0.4381,3,1,1,6334,32200,0.337981584761835,0.753944693219463,0.932142563252115,0.961556779045788,0.7464064050698
"427",38.27254,-122.272565,119331,"Napa Valley College","CA",0.4423,0.5577,0.3232,0.0669,0.3778,0.1433,0.0037,0.0049,0.0542,0.5432276657,0.0863350486,"Napa","94558-6236",1,0.0165,2,2,2,7000,42500,0.991787412472746,0.952735777533263,0.972616208961607,0.998237976891848,0.978844343964866
"428",34.200824,-118.526677,119359,"Everest College-Reseda","CA",0.2701,0.7299,0.1242,0.0403,0.6762,0.0587,0.0101,0.005,0.0319,0.5614035088,0.1289045315,"Reseda","91335-4631",3,0.541,2,1,2,9500,30200,0.931783297570262,0.670877536781863,0.996890359057635,0.995464071843609,0.898753816313342
"429",33.893072,-118.292896,119456,"Everest College-Gardena","CA",0.158,0.842,0.033,0.4127,0.3868,0.0236,0.0047,0.0118,0.0542,0.5487922705,0.1446718419,"Gardena","90247",3,0.5866,1,1,3,9500,26500,0.759699179054119,-0.415769737902227,0.999771194326677,0.997525489449739,0.585306531232077
"430",34.080181,-118.148684,119465,"Everest College-Alhambra","CA",0.2642,0.7358,0.0296,0.0387,0.8178,0.0364,0,0.0068,0.041,0.5986525505,0.1083437111,"Alhambra","91803",3,0.5982,1,1,3,9500,26700,0.925341518762998,0.258122086144696,0.988172018437757,0.985756136600439,0.789347939986473
"431",34.059754,-117.28222,119508,"Everest College-San Bernardino","CA",0.4152,0.5848,0.1208,0.1411,0.5753,0.0109,0.0136,0.0109,0.076,0.6028368794,0.1762611276,"San Bernardino","92408",3,0.5582,2,1,2,7489.5,24000,0.998756893691134,0.674844006066374,0.995605605654308,0.984327755753198,0.913383565291254
"432",37.359057,-121.815921,119544,"The National Hispanic University","CA",0.1702,0.8298,0.1277,0,0.4255,0.0426,0,0,0.0426,0.6891891892,0.2475247525,"San Jose","95127-3823",3,0.3615,4,3,1,11000,42700,0.783514396244828,0.776456883801394,0.937519338101515,0.939614980335751,0.859276399620872
"433",37.841898,-122.287672,119553,"National Holistic Institute","CA",0.3367,0.6633,0.4122,0.0933,0.1889,0.0689,0.0111,0.0278,0.1522,0.4606060606,0.1463210702,"Emeryville","94608-2008",3,0.8004,1,1,3,9500,35700,0.9843453110116,0.408677792560131,0.999881719363178,0.994618250373564,0.846880768327118
"434",32.909469,-117.244243,119605,"National University","CA",0.4267,0.5733,0.3949,0.1041,0.2633,0.1062,0.0068,0.0181,0.0455,0.4455240852,0.4183040331,"La Jolla","92037-1011",2,0.4092,4,3,1,13403.5,56400,0.996548161790928,0.893299515301368,0.523736050030586,0.991085936414527,0.851167415884352
"435",32.71331,-117.153305,119775,"Newschool of Architecture and Design","CA",0.7306,0.2694,0.2528,0.0222,0.3778,0.0972,0,0,0.0389,0.5140186916,0.106870229,"San Diego","92101",3,0.6747,4,3,1,28500,47100,0.538111791638839,0.92817794607142,0.987331552297176,0.999998555787918,0.863404961448838
"436",34.25748,-118.499469,119845,"Newberry School of Beauty","CA",0.041,0.959,0.459,0.0574,0.4098,0.0492,0.0082,0,0.0082,0.5905511811,0.1104651163,"Granada Hills","91344-7401",3,0.3959,1,1,3,5687.5,24400,0.468213053176645,0.812983134956119,0.989331397597157,0.988327697717678,0.8147138208619
"437",37.677778,-120.992753,119951,"North Adrian's College of Beauty Inc","CA",0.0107,0.9893,0.2964,0.0643,0.5571,0.0536,0,0,0.0286,0.6995305164,0.1818181818,"Modesto","95350-2381",3,0.494,1,1,3,9500,21500,0.374096727507372,0.889200019697704,0.993501594965014,0.932311692695914,0.797277508716501
"438",34.06203,-117.751861,120069,"North-West College-Pomona","CA",0.1306,0.8694,0.0821,0.0373,0.7537,0.041,0,0.0037,0,0.5852918878,0.1893258427,"Pomona","91768",3,0.9812,1,1,3,8698,23200,0.701683699077865,0.432299523139952,0.990007492012495,0.989860186624513,0.778462725213706
"439",34.072071,-117.949583,120078,"North-West College-West Covina","CA",0.1968,0.8032,0.0429,0.0179,0.7782,0.0823,0,0,0,0.6568742656,0.1860053144,"West Covina","91790",3,0.7497,1,1,3,8030,27700,0.831131582900255,0.324183051647224,0.991645239475054,0.959750358259044,0.776677558070394
"440",34.146907,-118.139266,120087,"North-West College-Pasadena","CA",0.181,0.819,0.0995,0.086,0.5566,0.086,0,0.0271,0,0.6398104265,0.1401273885,"Pasadena","91101",3,0.7157,1,1,3,8190,25300,0.803559923771715,0.746005554002535,0.999279670367234,0.968740836516099,0.879396496164396
"441",37.517501,-122.284618,120184,"Notre Dame de Namur University","CA",0.3331,0.6669,0.254,0.0646,0.3662,0.1189,0.0059,0.0306,0.0391,0.4130434783,0.0960118168,"Belmont","94002-1908",2,0.6826,4,3,1,18750,53500,0.982450760819531,0.93768760023456,0.980248481557898,0.980468230046668,0.970213768164664
"444",37.527956,-121.914597,120290,"Ohlone College","CA",0.536,0.464,0.1964,0.0379,0.1834,0.304,0.0019,0.0067,0.0458,0.4753004005,0.1009667025,"Fremont","94539-0390",1,0.013,2,1,2,9399,48700,0.920445813699566,0.395024779909104,0.983674920242823,0.99720712852374,0.824088160593808
"445",33.670171,-117.911401,120342,"Orange Coast College","CA",0.5229,0.4771,0.3385,0.0155,0.3357,0.1991,0.0024,0.0028,0.0428,0.5124388688,0.0747724317,"Costa Mesa","92626",1,0.0197,2,2,2,4375,41600,0.934826982978325,0.80355725115638,0.961865189730183,0.999998992739738,0.925062104151157
"448",33.87616,-117.88573,120537,"Hope International University","CA",0.4498,0.5502,0.3799,0.0564,0.201,0.0282,0.0049,0.0098,0.1103,0.4351464435,0.152293578,"Fullerton","92831-3199",2,0.7351,4,3,1,17750,41100,0.988775463118458,0.650384461789729,0.99997959187643,0.988140541001176,0.906820014446448
"449",32.70406,-117.10187,120661,"Concorde Career College-San Diego","CA",0.2492,0.7508,0.1727,0.1603,0.4302,0.1241,0.0062,0.0403,0.0403,0.5115303983,0.238793806,"San Diego","92113-1964",3,0.4138,2,1,2,9500,27800,0.907655598466451,0.800817708149402,0.948262566320838,0.999994838849437,0.914182677946532
"452",34.153073,-118.151573,120768,"Pacific Oaks College","CA",0.0768,0.9232,0.2365,0.0996,0.5353,0.0228,0.0041,0.0062,0.0104,0.536977492,0.3287037037,"Pasadena","91103",2,0.7735,4,3,1,18750,40700,0.569536175163669,0.866892667521719,0.78914670175205,0.998894342049674,0.806117471621778
"455",38.57409,-122.449639,120865,"Pacific Union College","CA",0.4371,0.5629,0.2786,0.0853,0.271,0.1813,0.0025,0.0208,0.0758,0.2765957447,0.0536585366,"Angwin","94508-9707",2,0.7787,4,3,1,21500,54200,0.993600053234259,0.831583535349511,0.937650311097014,0.890946583239261,0.913445120730011
"456",37.980624,-121.307296,120883,"University of the Pacific","CA",0.4842,0.5158,0.2985,0.025,0.1817,0.3306,0.0058,0.006,0.0466,0.3497723824,0.0390309556,"Stockton","95211-0197",2,0.592,4,3,1,20723.5,80600,0.968944567970238,0.283144015216625,0.917401498987972,0.947979356887221,0.779367359765514
"458",33.15019,-117.181718,120971,"Palomar College","CA",0.556,0.444,0.423,0.0311,0.3822,0.0663,0.0073,0.0057,0.0438,0.5624139514,0.1487341772,"San Marcos","92069-1487",1,0.0124,2,1,2,4500,37200,0.89572671059223,0.870506173302187,0.999978319093869,0.995272084115499,0.940370821775946
"460",34.144552,-118.118196,121044,"Pasadena City College","CA",0.4773,0.5227,0.0948,0.0441,0.4828,0.2335,0.0011,0.0012,0.0933,0.5768993206,0.0511090784,"Pasadena","91106-2003",1,0.0106,2,2,2,4944,37500,0.973714273448851,0.551108851067356,0.934325668963528,0.992082397592346,0.86280779776802
"461",34.041912,-118.707677,121150,"Pepperdine University","CA",0.4089,0.5911,0.4496,0.0606,0.134,0.1302,0.0044,0.0029,0.0865,0.204616999,0.0338308458,"Malibu","90263",2,0.437,4,3,1,24000,71400,0.999498833892897,0.624111894786131,0.909518134519714,0.814487020744536,0.836903970985819
"463",32.76373,-117.063483,121275,"Platt College-San Diego","CA",0.6783,0.3217,0.3439,0.1083,0.2452,0.0955,0.0127,0,0.1019,0.4394904459,0.1609195402,"San Diego","92115-3919",3,0.1892,3,2,1,20000,36100,0.67192986406479,0.787837043531564,0.999284457120364,0.989424537450403,0.86211897554178
"464",32.713295,-117.251204,121309,"Point Loma Nazarene University","CA",0.3617,0.6383,0.6176,0.023,0.218,0.0508,0.0086,0.0086,0.0586,0.25382263,0.0606936416,"San Diego","92106-2899",2,0.6232,4,3,1,18560,52300,0.994517573578077,0.415804982772643,0.94637659029689,0.868939464295383,0.806409652735748
"467",33.85182,-118.289777,121381,"Westwood College-South Bay","CA",0.4717,0.5283,0.0794,0.2358,0.4717,0.034,0.0023,0.0181,0.0136,0.6068111455,0.1217656012,"Torrance","90502",3,0.8249,3,3,1,22000,35100,0.977293166010605,0.548763992355197,0.994499752201078,0.982907896790028,0.875866201839227
"469",33.759203,-117.888384,121619,"Santa Ana College","CA",0.6248,0.3752,0.2201,0.0145,0.5003,0.0829,0.0027,0.0031,0.0143,0.7116920842,0.0977601493,"Santa Ana","92706-3398",1,0.0074,2,2,2,6000,37000,0.785192825737929,0.874696885179675,0.98149474107594,0.923189601817404,0.891143513452737
"472",34.063571,-117.163847,121691,"University of Redlands","CA",0.4305,0.5695,0.469,0.0434,0.2668,0.0539,0.0067,0.0043,0.0375,0.3324396783,0.1187576127,"Redlands","92373-0999",2,0.6568,4,3,1,24500,56000,0.995575649603779,0.77751252852367,0.993289722125971,0.936356723129201,0.925683655845655
"473",40.696744,-124.195075,121707,"College of the Redwoods","CA",0.4615,0.5385,0.5772,0.0228,0.1609,0.0334,0.0694,0.0076,0.0717,0.4880889359,0.102393617,"Eureka","95501-9300",1,0.0404,2,2,2,4500,30400,0.983139198018507,-0.219346679006513,0.984601180091935,0.99877533056031,0.686792257416059
"476",34.019878,-118.033329,121886,"Rio Hondo College","CA",0.5342,0.4658,0.0819,0.0138,0.7978,0.0734,0.0019,0.0011,0.0093,0.6715557884,0.0577693041,"Whittier","90601-1616",1,0.0075,2,2,2,4750,36700,0.922506749281002,0.357300889596693,0.942829123012548,0.951106818827639,0.79343589517947
"477",33.971481,-117.38054,121901,"Riverside City College","CA",0.4409,0.5591,0.2194,0.0831,0.5642,0.0625,0.0027,0.0036,0.0404,0.562490439,0.0852731044,"Riverside","92506",1,0.0213,2,2,2,4500,34700,0.992297636268628,0.897961725387457,0.971702878039536,0.995257389186437,0.964304907220514
"478",37.781238,-122.267523,121983,"Argosy University-San Francisco Bay Area","CA",0.2741,0.7259,0.2667,0.4,0.163,0.0593,0.0296,0.0444,0,0.5099347495,0.1975711015,"Alameda","94501",3,0.7024,4,3,1,10000,41300,0.935985318935244,-0.446487695660355,0.985307305289883,0.999979756421547,0.618696171246579
"482",38.541883,-121.49166,122180,"Sacramento City College","CA",0.4353,0.5647,0.2806,0.1209,0.292,0.1942,0.0058,0.0122,0.0599,0.5193642674,0.0991935484,"Sacramento","95822-1386",1,0.0502,2,2,2,6500,36800,0.994174914709792,0.853453863060412,0.982486212015342,0.999924935270033,0.957509981263895
"483",33.551925,-117.664876,122205,"Saddleback College","CA",0.458,0.542,0.544,0.0222,0.2461,0.0912,0.0025,0.003,0.0507,0.4247168554,0.1511860532,"Mission Viejo","92692-3635",1,0.0202,2,1,2,5250,40700,0.984945051057125,0.622735781282804,0.999997234233577,0.984757509117172,0.898108893922669
"484",37.82029,-122.266331,122296,"Samuel Merritt University","CA",0.182,0.818,0.4004,0.0345,0.1533,0.2682,0.0019,0.0096,0.0996,0.3698030635,0.1834319527,"Oakland","94609",2,0.7334,4,3,1,18750,112000,0.805366739156747,0.355651448455581,0.992813719379706,0.95995270041911,0.778446151852786
"485",32.718855,-117.151641,122339,"San Diego City College","CA",0.481,0.519,0.2376,0.1167,0.4846,0.0873,0.0036,0.0049,0.0425,0.5660027791,0.1145833333,"San Diego","92101-4787",1,0.0465,2,2,2,3500,32000,0.971206024228081,0.962291192491511,0.991411371728477,0.994558028423738,0.979866654217952
"486",33.12291,-117.283394,122366,"Golf Academy of America-Carlsbad","CA",0.9524,0.0476,0.631,0.0179,0.0595,0.0595,0.0119,0.0179,0.0476,0.5394716354,0.1807204088,"Carlsbad","92008",3,0.4206,2,2,2,11108,28900,-0.283153274391467,0.174896325767836,0.99394975150022,0.998650674061778,0.471085869234592
"487",32.804935,-117.169072,122375,"San Diego Mesa College","CA",0.4817,0.5183,0.3316,0.0664,0.3366,0.1578,0.0036,0.0067,0.0605,0.508899143,0.110374891,"San Diego","92111-4998",1,0.0223,2,2,2,3500,40100,0.970718634990534,0.919814504499656,0.989283305512799,0.999964657487991,0.969945275622745
"488",32.909546,-117.120888,122384,"San Diego Miramar College","CA",0.5644,0.4356,0.3785,0.0488,0.2375,0.2268,0.0036,0.0087,0.0616,0.487804878,0.2040410732,"San Diego","92126-2999",1,0.023,2,1,2,3500,42200,0.88434896254076,0.693979933883307,0.980986681954669,0.998747419623917,0.889515749500663
"489",32.77525,-117.071228,122409,"San Diego State University","CA",0.4503,0.5497,0.3501,0.0362,0.3104,0.1326,0.0025,0.0026,0.0639,0.4095003085,0.0553948355,"San Diego","92182",1,0.3683,4,3,1,13997,52000,0.988557970908884,0.888754531506499,0.939865115270506,0.979061258898287,0.949059719146044
"490",32.77142,-117.188721,122436,"University of San Diego","CA",0.448,0.552,0.5421,0.0299,0.1932,0.0647,0.005,0.003,0.0575,0.2286666667,0.0187969925,"San Diego","92110-2492",2,0.4204,4,3,1,19740,66300,0.989541155141463,0.574165727287947,0.884706140902933,0.842280072429006,0.822673273940337
"491",37.803575,-122.417,122454,"San Francisco Art Institute","CA",0.4292,0.5708,0.4837,0.0196,0.1678,0.0392,0.0044,0.0044,0.0784,0.171875,0.0490196078,"San Francisco","94133-2299",2,0.5628,4,3,1,15750,32600,0.995921916305077,0.570674105806151,0.931536490244534,0.773025068784111,0.817789395284968
"493",37.721345,-122.477905,122597,"San Francisco State University","CA",0.4357,0.5643,0.2195,0.0477,0.2486,0.2851,0.0024,0.0065,0.0575,0.4696435089,0.0387241414,"San Francisco","94132",1,0.3818,4,3,1,14479,51900,0.994049505097263,0.542446399247228,0.916946341706663,0.996310112073635,0.862438089531197
"495",37.775564,-122.450977,122612,"University of San Francisco","CA",0.3778,0.6222,0.2927,0.0307,0.1956,0.1984,0.0031,0.0059,0.0663,0.2883172562,0.0322260783,"San Francisco","94117-1080",2,0.4776,4,3,1,21500,70600,0.998306601625226,0.727276656799999,0.907012767491751,0.901485906744757,0.883520483165433
"497",37.994643,-121.317226,122658,"San Joaquin Delta College","CA",0.4327,0.5673,0.2342,0.0933,0.4365,0.1669,0.0044,0.0048,0.0517,0.5815616181,0.1021025148,"Stockton","95207",1,0.0526,2,2,2,4500,34300,0.994957520798618,0.932507343250739,0.984414411856813,0.990881790828546,0.975690266683679
"498",36.328049,-119.384981,122685,"San Joaquin Valley College-Visalia","CA",0.2851,0.7149,0.2577,0.0801,0.5058,0.0514,0.0084,0.01,0.0648,0.5826513912,0.1988890394,"Visalia","93291-9283",3,0.6466,2,2,2,12000,30900,0.946852184768277,0.922296018196966,0.98447229565763,0.990588943578811,0.961052360550421
"499",38.819494,-121.292968,122728,"William Jessup University","CA",0.42,0.58,0.6844,0.0495,0.1653,0.0336,0.0097,0.0053,0.0336,0.3544973545,0.1274193548,"Rocklin","95765-3707",2,0.9093,4,3,1,15500,41000,0.997969220713435,0.205135764262588,0.996448797062888,0.950944639329777,0.787624605342172
"500",37.316293,-121.929747,122746,"San Jose City College","CA",0.4424,0.5576,0.1748,0.066,0.4204,0.2367,0.0051,0.0059,0.0418,0.5979081929,0.1331309627,"San Jose","95128-2798",1,0.0216,2,2,2,5000,34300,0.991750341831424,0.757623755998081,0.997986577681482,0.986003084499342,0.933340940002582
"501",37.335201,-121.881214,122755,"San Jose State University","CA",0.5177,0.4823,0.2098,0.0342,0.2488,0.3567,0.0014,0.0078,0.052,0.4900055525,0.0455791638,"San Jose","95192-0001",1,0.3501,4,3,1,12500,60200,0.940138350732682,0.205579378928339,0.926817552966199,0.998955433907359,0.767872679133645
"502",37.534357,-122.336078,122791,"College of San Mateo","CA",0.5061,0.4939,0.3016,0.0342,0.2966,0.2399,0.0014,0.02,0.0514,0.5222465354,0.0606767795,"San Mateo","94402-3784",1,0.0089,2,1,2,4403,44000,0.951173377544649,0.713057427660424,0.946356460818535,0.99983902643947,0.902606573115769
"503",35.359544,-119.061264,122834,"Santa Barbara Business College-Bakersfield","CA",0.3078,0.6922,0.1299,0.0587,0.7527,0.0302,0.0071,0.0053,0.016,0.6630901288,0.1588235294,"Bakersfield","93309",3,0.8038,3,2,1,17450,24900,0.966084455185049,0.532648100477582,0.999544284840149,0.956193400736771,0.863617560309888
"504",34.061397,-118.293292,122843,"Westwood College-Los Angeles","CA",0.4506,0.5494,0.2789,0.1812,0.2291,0.0237,0.0053,0.003,0.0373,0.5443583118,0.1835522201,"Los Angeles","90010",3,0.8424,4,3,1,14462,33400,0.988426473847982,0.777810880379227,0.99276106964539,0.998102979279624,0.939275350788056
"505",34.403862,-119.699744,122852,"Santa Barbara Business College-Santa Maria","CA",0.1584,0.8416,0.198,0.0248,0.7376,0.005,0,0.0099,0.0149,0.6820809249,0.1837606838,"Santa Maria","93454",3,0.8786,3,2,1,16500,27600,0.760499706638685,0.531181244856201,0.992669354799942,0.944393291363934,0.80718589941469
"506",34.406788,-119.698045,122889,"Santa Barbara City College","CA",0.467,0.533,0.4245,0.0342,0.3159,0.0512,0.0034,0.0014,0.048,0.4460719041,0.0710640711,"Santa Barbara","93109-2394",1,0.0994,2,2,2,5745,39300,0.980094821081621,0.835472701798082,0.958040945559796,0.991229755651244,0.941209556022686
"507",37.352706,-121.938189,122931,"Santa Clara University","CA",0.5041,0.4959,0.4841,0.0316,0.1718,0.1504,0.0013,0.0024,0.0676,0.1871244635,0.0165016502,"Santa Clara","95053",2,0.3672,4,3,1,19500,79500,0.952962438389801,0.616484357433851,0.880653665688471,0.792855641807321,0.810739025829861
"508",34.018968,-118.470431,122977,"Santa Monica College","CA",0.4751,0.5249,0.2558,0.0893,0.3796,0.1051,0.0019,0.0025,0.0393,0.5097739768,0.0382953882,"Santa Monica","90405-1628",1,0.0125,2,1,2,4500,38100,0.975151487700991,0.988200876151634,0.916308193588966,0.999977686474098,0.969909560978922
"509",38.45416,-122.720689,123013,"Santa Rosa Junior College","CA",0.4536,0.5464,0.5675,0.0257,0.294,0.0452,0.0081,0.0034,0.0494,0.4890465906,0.1033300686,"Santa Rosa","95401-4395",1,0.0192,2,1,2,5500,41300,0.98707018166372,0.58680605933547,0.985194361891215,0.998867110429347,0.889484428329938
"512",37.469279,-121.919395,123208,"Wyotech-Fremont","CA",0.964,0.036,0.2646,0.0795,0.3528,0.1193,0.0112,0.046,0.0882,0.5459533608,0.1756756757,"Fremont","94539",3,0.5208,2,1,2,9500,42000,-0.337405493272806,0.773514823173399,0.995803381173764,0.997904060309368,0.607454192845931
"513",36.322957,-119.314775,123217,"College of the Sequoias","CA",0.4399,0.5601,0.2579,0.0258,0.6203,0.0432,0.0051,0.0016,0.0318,0.5671641791,0.1094500801,"Visalia","93277-2214",1,0.0204,2,2,2,3077.5,30400,0.992652064485542,0.788921221838736,0.988784125179571,0.994316198075967,0.941168402394954
"515",40.625731,-122.317982,123299,"Shasta College","CA",0.4138,0.5862,0.6979,0.0154,0.1415,0.0338,0.0276,0.0044,0.0431,0.5364949981,0.1527950311,"Redding","96003",1,0.0423,2,2,2,5869,30600,0.99895040222144,0.0206280931975623,0.999966244437029,0.998938681036221,0.754620855223063
"516",38.792758,-121.212646,123341,"Sierra College","CA",0.4607,0.5393,0.5886,0.0269,0.2575,0.0463,0.0057,0.0032,0.0532,0.4686200036,0.167858253,"Rocklin","95677-3397",1,0.0631,2,2,2,7500,34800,0.98356098004375,0.51880941882762,0.998007886013395,0.996134490060113,0.874128193736219
"520",40.61331,-122.333048,123457,"Simpson University","CA",0.3408,0.6592,0.6207,0.0282,0.1211,0.0347,0.0254,9e-04,0.0338,0.4027355623,0.2217573222,"Redding","96003-8606",2,0.9336,4,3,1,16300.5,37900,0.986371223262635,0.235380757356659,0.966309503738401,0.976239134409493,0.791075154691797
"521",41.413848,-122.389166,123484,"College of the Siskiyous","CA",0.4989,0.5011,0.6055,0.0463,0.1366,0.035,0.022,0.0073,0.0497,0.4979195562,0.1269461078,"Weed","96094-2899",1,0.1512,2,2,2,8750,30700,0.957457725902651,0.33594319155062,0.99630193809633,0.999547498798509,0.822312588587027
"522",38.51651,-121.44111,123493,"Charles A Jones Career and Education Center","CA",0.6273,0.3727,0.2,0.2187,0.2058,0.1942,0.0475,0.0504,0.0835,0.5728395062,0.2227979275,"Sacramento","95824-1529",1,0.2218,1,1,2,5500,28800,0.780432335779835,0.113850811416374,0.965317749598209,0.993058852121635,0.713164937229013
"523",37.630543,-122.465978,123509,"Skyline College","CA",0.4754,0.5246,0.1962,0.0321,0.2902,0.3827,0.0021,0.0124,0.0527,0.5079626579,0.0859982714,"San Bruno","94066-1698",1,0.0113,2,2,2,5512,43600,0.974957883060334,0.0794167614929937,0.972328184169917,0.99994740476452,0.756662558371941
"524",34.088717,-117.313814,123527,"San Bernardino Valley College","CA",0.4296,0.5704,0.1423,0.123,0.6443,0.0446,0.0021,0.0036,0.0336,0.6216968011,0.1036585366,"San Bernardino","92410-2798",1,0.0018,2,2,2,3500,31200,0.995816875307413,0.733879938407964,0.985399665268597,0.977042712423839,0.923034797851953
"525",37.83997,-122.106795,123554,"Saint Mary's College of California","CA",0.4134,0.5866,0.4564,0.0387,0.2513,0.1034,0.0031,0.0071,0.0688,0.2706110572,0.0262681159,"Moraga","94575",2,0.5099,4,3,1,21500,68600,0.999002685167484,0.769873509470766,0.897411871081186,0.885358991020785,0.887911764185055
"526",38.235513,-122.120232,123563,"Solano Community College","CA",0.4056,0.5944,0.3218,0.1486,0.2556,0.1449,0.0025,0.0082,0.0904,0.511472983,0.1416062802,"Fairfield","94534-3197",1,0.0303,2,2,2,6224.5,40500,0.999755240195909,0.80122293482509,0.999469741602114,0.999994468254399,0.950110596219378
"527",38.341023,-122.673261,123572,"Sonoma State University","CA",0.3789,0.6211,0.5105,0.0219,0.2637,0.0456,0.0053,0.0023,0.0671,0.4096701649,0.0427824951,"Rohnert Park","94928-3609",1,0.4079,4,3,1,14000,49400,0.998486509196319,0.647626939533537,0.922865752592351,0.979129824414622,0.887027256434207
"528",34.081485,-118.150493,123581,"Pinnacle College","CA",0.9138,0.0862,0.3276,0.2471,0.3276,0.0345,0.0057,0,0.046,0.4139784946,0.092920354,"Alhambra","91803",3,0.677,1,1,2,13000,33900,-0.110712181852834,0.658520484905738,0.977945413144422,0.980831359696566,0.626646268973473
"530",33.787946,-117.874109,123642,"South Coast College","CA",0.0877,0.9123,0.3567,0.0292,0.3772,0.0877,0.0058,0.0029,0.0556,0.5691489362,0.1885964912,"Orange","92868-2609",3,0.7481,2,1,2,19097,33000,0.598261313998695,0.918339921909664,0.990379775920046,0.993890757238763,0.875217942266792
"531",33.662686,-117.900911,123651,"Vanguard University of Southern California","CA",0.3395,0.6605,0.458,0.0417,0.3617,0.0402,0.0031,0.0077,0.0505,0.3595505618,0.0929292929,"Costa Mesa","92626",2,0.8094,4,3,1,19500,44600,0.985744053824794,0.811421352060736,0.977952255454472,0.954019626095054,0.932284321858764
"532",33.774741,-117.938395,123679,"Concorde Career College-Garden Grove","CA",0.2854,0.7146,0.1294,0.0308,0.4661,0.1828,0.0072,0.0298,0.0349,0.5173299101,0.1619786615,"Garden Grove","92840-9201",3,0.6898,2,1,2,9500,39300,0.947134404327353,0.754744914527102,0.999130967545715,0.999966079872571,0.925244091568185
"533",32.641567,-116.997215,123800,"Southwestern College","CA",0.4688,0.5312,0.2711,0.0568,0.5064,0.1208,0.0163,0.0112,0,0.5754035684,0.1063589413,"Chula Vista","91910-7299",1,0.0168,2,2,2,4000,34700,0.979043634538776,0.900216972030884,0.987033175633294,0.992449625206726,0.96468585185242
"537",34.021058,-118.283858,123961,"University of Southern California","CA",0.4945,0.5055,0.3644,0.0436,0.1353,0.225,0.0013,0.0017,0.0508,0.2332909784,0.0118962646,"Los Angeles","90089",2,0.3729,4,3,1,21062,81300,0.961085125333526,0.596792220225755,0.872311651356604,0.847365773466391,0.819388692595569
"543",38.64499,-121.362221,124487,"Epic Bible College","CA",0.5144,0.4856,0.375,0.1971,0.1298,0.0385,0.0192,0.024,0.101,0.523364486,0.3120567376,"Sacramento","95841",2,0.6402,3,3,1,9500,35000,0.943391948626434,0.46324624809766,0.826708762329509,0.999796990063873,0.808285987279369
"544",33.986057,-118.226206,124681,"United Education Institute-Huntington Park Campus","CA",0.3676,0.6324,0.0769,0.1111,0.6176,0.0205,0.0034,0.0067,0.0194,0.6500126807,0.1357423409,"Huntington Park","90255",3,0.4913,2,1,2,9500,26500,0.996157284474876,0.656954066426521,0.998545283431874,0.963501960306232,0.903789648659876
"545",34.06722,-117.28398,124706,"Concorde Career College-San Bernardino","CA",0.226,0.774,0.1751,0.1228,0.5075,0.0449,0.0015,0.012,0.0569,0.5699177438,0.1646734131,"San Bernardino","92408-3403",3,0.572,2,1,2,9500,29300,0.876602301050147,0.875545576343465,0.998673243672702,0.993721834810208,0.93613573896913
"547",34.186464,-118.403755,124937,"Concorde Career College-North Hollywood","CA",0.3871,0.6129,0.1339,0.0516,0.5677,0.1081,0.0032,0.0403,0.0145,0.5582733813,0.1114457831,"North Hollywood","91606-3134",3,0.5708,2,1,2,9500,42500,0.999509337016404,0.722834396605157,0.989847138629181,0.996033550939333,0.927056105797519
"548",34.277035,-119.230659,125028,"Ventura College","CA",0.4517,0.5483,0.2991,0.0248,0.5658,0.047,0.0048,0.0023,0.0371,0.5692254969,0.0779936975,"Ventura","93003-3872",1,0.0333,2,2,2,6000,36400,0.987937890157414,0.846414829318102,0.965038837877105,0.993874038599438,0.948316398988015
"549",34.528578,-117.303918,125082,"Victor Valley Beauty College Inc","CA",0.0515,0.9485,0.3918,0.1443,0.4021,0.0206,0.0103,0,0.0309,0.6097560976,0.102739726,"Victorville","92395",3,0.6948,1,1,3,6397,15700,0.49903952422204,0.848106296855517,0.984821775119999,0.981816065248262,0.828445915361454
"550",34.472231,-117.261456,125091,"Victor Valley College","CA",0.4297,0.5703,0.3124,0.1183,0.4858,0.0222,0.0036,0.0028,0.0463,0.567694622,0.1309593023,"Victorville","92395-5850",1,0,2,2,2,6000,32400,0.995790406363173,0.900433318412491,0.997452950977909,0.994203998762415,0.971970168628997
"551",37.87047,-122.269793,125170,"Berkeley City College","CA",0.4467,0.5533,0.2758,0.1798,0.243,0.1643,0.003,0.0034,0.0706,0.460203471,0.0697674419,"Berkeley","94704",1,0.0216,2,1,2,5775,36100,0.990077334133006,0.771673362540415,0.956660688953829,0.994535477283827,0.928236715727769
"554",36.147891,-120.356747,125462,"West Hills College-Coalinga","CA",0.395,0.605,0.1863,0.0699,0.6294,0.0406,0.0059,0.0039,0.0185,0.6082474227,0.0911458333,"Coalinga","93210",1,0.0625,2,2,2,5500,31700,0.999963866412064,0.783944360755347,0.976566077728642,0.982379624256199,0.935713482288063
"555",34.005578,-118.387578,125471,"West Los Angeles College","CA",0.4104,0.5896,0.1295,0.2916,0.4219,0.055,0.0029,0.0025,0.0352,0.5498866213,0.0754874652,"Culver City","90230-3519",1,0.0374,2,2,2,9000,33700,0.999352233518626,0.452617965339027,0.962581557421056,0.997371168904688,0.852980731295849
"556",37.263133,-122.009701,125499,"West Valley College","CA",0.4475,0.5525,0.4659,0.0273,0.2602,0.1492,0.0019,0.0031,0.0518,0.4693877551,0.1054273238,"Saratoga","95070-5698",1,0.0055,2,2,2,4500,37700,0.989749047389114,0.740801758352698,0.986480574029326,0.996266610235449,0.928324497501646
"557",38.561777,-121.36892,125532,"Carrington College-Sacramento","CA",0.1227,0.8773,0.3726,0.1112,0.2484,0.1011,0.0116,0.0209,0.0513,0.5172798216,0.1471196455,"Sacramento","95826",3,0.6241,2,2,2,12117,31100,0.68379263362195,0.883603102905993,0.999922251967245,0.999966889446375,0.891821219485391
"561",34.209226,-118.340692,125897,"Woodbury University","CA",0.5019,0.4981,0.3509,0.0376,0.2682,0.0781,0.0023,0.012,0.0278,0.3904761905,0.0625,"Burbank","91510-7846",2,0.6573,4,3,1,27000,50400,0.95489183851591,0.897672837578623,0.948511090695653,0.970670268433124,0.942936508805828
"566",39.125995,-121.539316,126119,"Yuba College","CA",0.4027,0.5973,0.4294,0.0383,0.3044,0.1137,0.012,0.004,0.061,0.5696155282,0.1782380397,"Marysville","95901",1,0,2,2,2,4500,32800,0.999905520288171,0.837641807342415,0.994904122285437,0.993788512422209,0.956559990584558
"1302",32.8273,-117.141961,154022,"Ashford University","CA",0.2956,0.7044,0.4709,0.353,0.0953,0.0118,0.0098,0.008,0.0299,0.5430011421,0.3229137594,"San Diego","92123",3,0.7203,4,3,1,9507.5,41500,0.956282845021988,-0.194329476948888,0.802628650146543,0.998264424406395,0.64071161065651
"4267",34.299474,-118.474121,244011,"ITT Technical Institute-Sylmar","CA",0.7562,0.2438,0.229,0.0906,0.5091,0.0956,0.0049,0.0066,0.0214,0.4972857507,0.2337406569,"Sylmar","91342-3664",3,0.7738,3,2,1,13566,42800,0.464286268715848,0.952854970345325,0.954017663877175,0.999509074179081,0.842666994279357
"4287",33.98764,-118.384651,245838,"Antioch University-Los Angeles","CA",0.2695,0.7305,0.5329,0.1138,0.2156,0.024,0,0,0.0479,0.4664804469,0.2146226415,"Culver City","90230-7615",2,0.3072,4,3,1,21916,38900,0.931141474411205,0.601527291088658,0.972721790428266,0.995754178112613,0.875286183510186
"4288",34.419007,-119.695767,245847,"Antioch University-Santa Barbara","CA",0.3576,0.6424,0.5152,0.0182,0.1939,0.0242,0.0121,0.0061,0,0.4664804469,0.2146226415,"Santa Barbara","93101",2,0.5,4,3,1,21916,38900,0.993206983707307,0.53597899625243,0.972721790428266,0.995754178112613,0.874415487125154
"4311",37.701216,-122.125819,246974,"Carrington College-San Leandro","CA",0.1356,0.8644,0.1709,0.2083,0.4165,0.0845,0.0138,0.0413,0.0452,0.5172798216,0.1471196455,"San Leandro","94578-1977",3,0.6032,2,1,2,12117,31100,0.712737941903645,0.69082825597048,0.999922251967245,0.999966889446375,0.850863834821936
"4335",32.708895,-117.155134,248846,"Fashion Institute of Design & Merchandising-San Diego","CA",0.0634,0.9366,0.3732,0.0352,0.3732,0.0775,0.0141,0.0282,0.0141,0.3405762872,0.0307298335,"San Diego","92101-4903",3,0.7041,2,2,2,12000,41800,0.532863597558742,0.868382255866208,0.904646005003693,0.941958627863565,0.811962621573052
"4362",34.081813,-118.151838,260789,"Platt College-Los Angeles","CA",0.2648,0.7352,0.1074,0.0272,0.6596,0.1649,0.0045,0.0045,0.0287,0.585504886,0.1525320317,"Alhambra","91803",3,0.5921,3,2,1,18870.5,33500,0.926009887903724,0.629090748716161,0.999973661415551,0.989800216333271,0.886218628592177
"4391",37.492628,-120.863441,262369,"Adrian's College of Beauty Turlock","CA",0.0226,0.9774,0.4361,0.0301,0.4962,0,0,0.0075,0.0301,0.5714285714,0.156462585,"Turlock","95380",3,0.7418,1,1,3,9500,12900,0.411973821290643,0.738821509013871,0.999767055697811,0.993383164075106,0.785986387519358
"4402",38.754587,-121.264779,363387,"Heald College-Roseville","CA",0.2699,0.7301,0.3569,0.0383,0.0565,0.0364,0.0115,0.0144,0.0297,0.5363278975,0.1818086665,"Roseville","95678",3,0.7786,2,2,2,9500,35800,0.931569690428962,0.606867626016031,0.993505548291694,0.998953825289702,0.882724172506597
"4434",33.136352,-117.188529,365125,"Palomar Institute of Cosmetology","CA",0,1,0.5702,0.0413,0.3636,0.0165,0.0083,0,0,0.4913294798,0.181372549,"San Marcos","92078",3,0.4541,1,1,3,6334,24800,0.33902984094406,0.548428815703861,0.993685451257421,0.999071482107809,0.720053897503288
"4455",33.789372,-117.893486,366289,"InterCoast Colleges-Orange","CA",0.4821,0.5179,0.3214,0.0179,0.5,0,0.0179,0,0,0.5297580118,0.238625363,"Orange","92868",3,0.9091,2,1,2,9500,26100,0.970438290340337,0.74260862134837,0.948459873847114,0.999462998458603,0.915242445998606
"4459",37.709623,-121.804948,366401,"Las Positas College","CA",0.4991,0.5009,0.4236,0.0441,0.2829,0.1492,0.0018,0.0049,0.0658,0.4946682464,0.1169678715,"Livermore","94551-7650",1,0.0109,2,2,2,6000,37400,0.957289004125569,0.810906665276289,0.992512720053302,0.99933380310522,0.940010548140095
"4473",33.129115,-117.158013,366711,"California State University-San Marcos","CA",0.3957,0.6043,0.323,0.0342,0.3965,0.0983,0.0041,0.0042,0.0542,0.4763217239,0.0728948471,"San Marcos","92096-0001",1,0.4107,4,3,1,12500,49300,0.999979014311778,0.944427472152741,0.959951765900292,0.997355788882507,0.97542851031183
"4476",37.713665,-121.087326,366960,"Brightwood College-Modesto","CA",0.1936,0.8064,0.277,0.0221,0.5392,0.0466,0.0123,0.027,0,0.6077694236,0.175470009,"Salida","95368",3,0.5743,2,1,2,8801,22000,0.825715740912299,0.797084748245928,0.995871778036451,0.982556328202117,0.900307148849199
"4510",34.170344,-118.538932,368771,"Hypnosis Motivation Institute","CA",0.28,0.72,0.6,0.0667,0.1467,0.04,0.0133,0,0.1333,0.3604651163,0.2666666667,"Tarzana","91356-4159",2,0.7845,1,1,3,9500,31000,0.941939503154676,0.151142715368098,0.910421499315035,0.954565516639884,0.739517308619423
"4511",34.063876,-118.369383,368780,"Los Angeles ORT College-Los Angeles Campus","CA",0.3595,0.6405,0.2908,0.098,0.2157,0.3791,0,0,0,0.6560509554,0.4837905237,"Los Angeles","90048",2,0.2496,2,1,2,6764,27200,0.993831777120109,0.0659071170807839,0.262290434781039,0.960210194576509,0.57055988088961
"4512",34.032458,-118.389485,368805,"Everest College-West Los Angeles","CA",0.2735,0.7265,0.0588,0.2853,0.4559,0.0382,0.0088,0.0118,0.0647,0.6168505517,0.125,"Los Angeles","90034-3169",3,0.6374,2,1,2,9245,27900,0.935363530479334,0.34513026972911,0.995666741910532,0.979047023438006,0.813801891389245
"4535",34.046799,-117.558954,371265,"Everest College-Ontario","CA",0.2207,0.7793,0.1443,0.1103,0.546,0.0226,0.0099,0.0113,0.0481,0.5767557489,0.1634527089,"Ontario","91761-2338",3,0.4887,1,1,3,9500,25800,0.868877761730914,0.811858863131761,0.998892542229,0.992118024721678,0.917936797953338
"4537",38.00361,-121.288042,371760,"Heald College-Stockton","CA",0.2751,0.7249,0.1971,0.119,0.3961,0.0966,0.0127,0.0195,0.0527,0.5363278975,0.1818086665,"Stockton","95210",3,0.7904,2,2,2,9500,33400,0.937014954794045,0.943984224290801,0.993505548291694,0.998953825289702,0.96836463816656
"4538",37.636589,-122.114939,371779,"Heald College-Hayward","CA",0.2821,0.7179,0.1039,0.1633,0.3595,0.1315,0.0085,0.053,0.0414,0.5363278975,0.1818086665,"Hayward","94545",3,0.7702,2,2,2,9500,39600,0.943988667602274,0.623069359303199,0.993505548291694,0.998953825289702,0.889879350121717
"4540",33.723142,-117.918837,371928,"Modern Technology School","CA",0.313,0.687,0.3893,0.0305,0.3282,0.0534,0.0076,0.0992,0.0534,0.5138888889,0.1467391304,"Fountain Valley","92708-9821",3,0.7589,1,1,2,13039,40100,0.969884536510071,0.0432547918327014,0.999903995199199,0.999998958470088,0.753260570503015
"4541",38.589642,-121.273156,371964,"National Career Education","CA",0.3404,0.6596,0.3617,0.1844,0.227,0.0851,0.0071,0.0071,0.0284,0.5281030445,0.2249408051,"Rancho Cordova","95670",3,0.7652,1,1,3,7600,37100,0.986179750653728,0.801974095750304,0.963230153885482,0.999564734509099,0.937737183699653
"4542",33.839256,-117.959779,371982,"Everest College-Anaheim","CA",0.2438,0.7562,0.1512,0.0519,0.5598,0.0948,0.0068,0.0226,0.0361,0.6171875,0.1669626998,"Anaheim","92801-5229",3,0.5976,2,1,2,9500,27800,0.900828870722478,0.841826823621172,0.998208598373259,0.978910629301719,0.929943730504657
"4544",34.148913,-118.255409,372028,"North-West College-Glendale","CA",0.1123,0.8877,0.3209,0.016,0.2567,0.0535,0,0,0,0.6568742656,0.1860053144,"Glendale","91203",3,0.9894,1,1,3,8030,27700,0.659445462611614,0.808207258685516,0.991645239475054,0.959750358259044,0.854762079757807
"4545",34.029444,-118.024591,372037,"Everest College-City of Industry","CA",0.2565,0.7435,0.0585,0.0315,0.7177,0.0247,0.0067,0.0146,0.0461,0.6168505517,0.125,"City of Industry","91746-1023",3,0.6175,2,1,2,9245,27900,0.916497361065744,0.470189990074687,0.995666741910532,0.979047023438006,0.840350279122242
"4546",33.867773,-118.098316,372073,"Fremont College","CA",0.3721,0.6279,0.062,0.2455,0.5013,0.0594,0,0.0155,0.031,0.5565217391,0.1431718062,"Cerritos","90703",3,0.7434,3,2,1,20000,35400,0.997212573074382,0.518160280629799,0.999639287358666,0.996335571887123,0.877836928237492
"4633",32.956526,-117.042738,377722,"Bellus Academy-Poway","CA",0.019,0.981,0.5528,0.0163,0.2276,0.0569,0.0163,0.0163,0.0894,0.4306784661,0.2685788787,"Poway","92064",3,0.5732,1,1,2,8764,22800,0.400639920711027,0.478924325290403,0.907447082056304,0.986743175727103,0.693438625946209
"4634",34.165828,-118.150615,377759,"Capstone College","CA",0.9,0.1,0.2,0.125,0.575,0.05,0.025,0.025,0,0.7169811321,0.1975308642,"Pasadena","91103",3,0.8627,1,1,3,7146.5,27200,-0.052080485606409,0.747319762136403,0.985332435529628,0.91904255682201,0.649903567220408
"4635",36.669595,-121.655643,378105,"Central Coast College","CA",0.1196,0.8804,0.0833,0.0109,0.8333,0.0181,0.0072,0.0072,0.0072,0.7640449438,0.131147541,"Salinas","93901-3301",3,0.3813,1,1,3,5477,30000,0.676629759079105,0.227209428672789,0.99750168564156,0.877339193463302,0.694670016714189
"4636",33.85967,-118.323701,378406,"ITT Technical Institute-Torrance","CA",0.7638,0.2362,0.0993,0.2384,0.4923,0.0971,0.0022,0,0.0397,0.4972857507,0.2337406569,"Torrance","90504",3,0.8096,3,2,1,13566,42800,0.441316159036009,0.612625232580306,0.954017663877175,0.999509074179081,0.751867032418143
"4654",33.692248,-116.185875,381255,"CET-Coachella","CA",0.6619,0.3381,0.0144,0.0144,0.9496,0.0072,0.0072,0,0.0072,0.6605664488,0.2064714946,"Coachella","92236",2,0.2634,1,1,3,5278,24900,0.70918929079289,-0.196593347665557,0.979219962154627,0.957655706057756,0.612367902834929
"4655",34.194208,-119.18145,381282,"CET-Oxnard","CA",0.605,0.395,0.0588,0,0.916,0.0252,0,0,0,0.6605664488,0.2064714946,"Oxnard","93030",2,0.3238,1,1,3,5278,24900,0.82105296395033,-0.0448660890231001,0.979219962154627,0.957655706057756,0.678265635784903
"4656",34.943576,-120.441978,381325,"CET-Santa Maria","CA",0.2276,0.7724,0.069,0.0207,0.8759,0.0069,0,0,0.0276,0.6605664488,0.2064714946,"Santa Maria","93458",2,0.3563,1,1,3,5278,24900,0.878888157631168,0.111391021488143,0.979219962154627,0.957655706057756,0.731788711832924
"4672",34.070068,-117.270676,381909,"ITT Technical Institute-San Bernardino","CA",0.7507,0.2493,0.2143,0.1545,0.4913,0.0481,0.0087,0,0.0583,0.4972857507,0.2337406569,"San Bernardino","92408",3,0.8699,3,2,1,13566,42800,0.48060864516318,0.869865755186534,0.954017663877175,0.999509074179081,0.826000284601493
"4673",34.153012,-118.462705,381945,"Los Angeles ORT College-Van Nuys Campus","CA",0.3565,0.6435,0.7161,0.0063,0.2492,0.0284,0,0,0,0.6560509554,0.4837905237,"Van Nuys","91411",2,0.354,2,2,2,6764,27200,0.992831487346745,0.0739942005517039,0.262290434781039,0.960210194576509,0.572331579313999
"4676",33.515476,-117.164001,382267,"Royale College of Beauty","CA",0.2895,0.7105,0.3684,0.1842,0.4079,0.0263,0.0132,0,0,0.5714285714,0.2195121951,"Temecula","92590",3,0.4646,1,1,3,6333,21400,0.950916107875403,0.769438024644191,0.96840023089017,0.993383164075106,0.920534381871218
"4677",34.08117,-117.435734,382276,"Westech College","CA",0.2346,0.7654,0.1754,0.1689,0.5789,0.011,0,0.0044,0.0066,0.6423611111,0.1604651163,"Fontana","92335",3,0.5935,1,1,3,9323,29000,0.888637511604507,0.702455492263503,0.999345744165911,0.967469087933143,0.889476958991766
"4746",34.140464,-116.213939,395362,"Copper Mountain Community College","CA",0.3532,0.6468,0.5907,0.0386,0.2491,0.0342,0.0109,0.0044,0.0626,0.5169029444,0.3078994614,"Joshua Tree","92252",1,0.1043,2,2,2,7750,32400,0.991644393288041,0.495716302642631,0.835514680062911,0.999972667287397,0.830712010820245
"4747",34.055938,-118.272364,395690,"Diversified Vocational College","CA",0.3461,0.6539,0.0589,0.0913,0.7275,0.0471,0.0015,0,0.0677,0.5541795666,0.2848,"Los Angeles","90017-1604",3,0.0418,1,1,3,6250,21300,0.988782141917725,0.487147464112364,0.880261460774199,0.996720727883617,0.838227948671976
"4749",36.783816,-119.790435,397942,"UEI College-Fresno","CA",0.1749,0.8251,0.1544,0.0973,0.6587,0.0346,0.0035,0.0021,0.0212,0.6584038694,0.1478293413,"Fresno","93726",3,0.5833,1,1,3,9500,29300,0.792357578466087,0.718899825855795,0.999951162934617,0.958889028404502,0.86752439891525
"4750",34.14241,-117.987931,398130,"Mt Sierra College","CA",0.7097,0.2903,0.172,0.0581,0.443,0.0946,0.0043,0.0194,0.071,0.4777777778,0.1308016878,"Monrovia","91016",3,0.8439,3,3,1,23730,46400,0.594327008659962,0.898465558634531,0.997411782760639,0.997560697727063,0.871941261945549
"4751",33.790993,-118.220223,398574,"Wyotech-Long Beach","CA",0.9058,0.0942,0.1408,0.1224,0.6039,0.0405,0.0053,0.0158,0.0563,0.6168505517,0.125,"Long Beach","90810-3800",3,0.5098,2,1,2,9245,27900,-0.0765291239273875,0.765726609819215,0.995666741910532,0.979047023438006,0.665977812810091
"4753",33.8381,-117.950661,399869,"Southern California Institute of Technology","CA",0.9506,0.0494,0.23,0.0798,0.4753,0.1635,0.0019,0.019,0.0228,0.5820610687,0.2551928783,"Anaheim","92801-3758",3,0.5262,3,1,1,9500,32200,-0.27483550101733,0.915455098081967,0.927248563479988,0.99074815144895,0.639654077998394
"4755",34.05402,-117.30975,400080,"Summit College","CA",0.3047,0.6953,0.1584,0.1433,0.4811,0.0543,0.0075,0.0528,0.0226,0.5487804878,0.2350993377,"Colton","92324",3,1,1,1,3,8444,31800,0.96371162773078,0.683222117173065,0.95250358836262,0.997527125596249,0.899241114715679
"4860",36.653724,-121.799216,409698,"California State University-Monterey Bay","CA",0.3795,0.6205,0.3238,0.0643,0.423,0.0535,0.0051,0.0042,0.0616,0.4623194065,0.0807764559,"Seaside","93955-8001",1,0.477,4,3,1,11525,43300,0.998580383224315,0.941398066008946,0.967669475903629,0.994963452387792,0.97565284438117
"4861",36.706813,-121.652784,409874,"Heald College-Salinas","CA",0.2566,0.7434,0.0616,0.0132,0.2947,0.0059,0.0015,0.0059,0.0044,0.5363278975,0.1818086665,"Salinas","93906",3,0.7917,2,2,2,9500,33100,0.916615392417949,0.617264771652013,0.993505548291694,0.998953825289702,0.88158488441284
"4866",34.061265,-118.299126,410502,"Argosy University-The Art Institute of California-Hollywood","CA",0.5031,0.4969,0.2091,0.1586,0.4351,0.0643,0.0062,0.0243,0.0019,0.5099347495,0.1975711015,"North Hollywood","91601",3,0.8048,3,3,1,10000,41300,0.95384444712291,0.862880262345407,0.985307305289883,0.999979756421547,0.950502942794937
"4867",33.946317,-117.281388,410520,"Sage College","CA",0.0713,0.9287,0.4668,0.0491,0.3145,0.0295,0,0.0172,0.113,0.4952380952,0.3360995851,"Moreno Valley","92557-6720",3,0.8949,2,1,2,18700,35500,0.554665353590954,0.61237641827484,0.771277508150006,0.999374234700671,0.734423378679118
"4871",34.062096,-118.295073,411684,"Marian Health Careers Center-Los Angeles Campus","CA",0.265,0.735,0.0598,0.0513,0.2821,0.5214,0,0.0513,0,0.3185185185,0.2588235294,"Los Angeles","90010",3,0.5838,1,1,3,14770,52600,0.926232009793861,-1.25647912983871,0.922113131224727,0.926173869716578,0.379509970224113
"4884",33.956018,-118.377744,413680,"Spartan College of Aeronautics & Technology","CA",0.9469,0.0531,0.1715,0.1546,0.4831,0.1063,0.0024,0.0242,0,0.5233415233,0.1880819367,"Inglewood","90301-2904",3,0.7698,1,1,2,20054,44700,-0.257822794541819,0.835673133062662,0.990638168973221,0.999797902489162,0.642071602495807
"4889",34.221029,-119.145955,413848,"ITT Technical Institute-Oxnard","CA",0.7491,0.2509,0.3024,0.0825,0.4296,0.1065,0.0069,0.0034,0.0275,0.4972857507,0.2337406569,"Oxnard","93036",3,0.7404,3,2,1,13566,42800,0.485309557392836,0.987730912398262,0.954017663877175,0.999509074179081,0.856641801961839
"4921",34.080137,-117.990592,416458,"Premiere Career College","CA",0.2757,0.7243,0.0476,0.0301,0.7494,0.1378,0.005,0.0175,0.0125,0.5911330049,0.2021466905,"Irwindale","91706-3746",3,0.9079,1,1,2,9500,35600,0.937628729368696,0.420148236411923,0.982309322286981,0.988151539192635,0.832059456815059
"4927",36.329656,-119.289484,417062,"Estes Institute of Cosmetology Arts and Science","CA",0.0395,0.9605,0.3158,0.0132,0.5526,0.0395,0.0132,0,0.0526,0.6142857143,0.1458333333,"Visalia","93291",3,0.2773,1,1,3,4475,18100,0.463734141461932,0.80838265966791,0.999852796197093,0.980070746769988,0.813010086024231
"4929",34.256528,-119.21916,417123,"Ventura Adult and Continuing Education","CA",0.5481,0.4519,0.4135,0.0288,0.4615,0.0673,0.0192,0.0096,0,0.58125,0.2058823529,"Ventura","93003-0000",1,0.1242,1,1,3,3500,26600,0.905889739085,0.809109388959503,0.97965542637617,0.990964678819933,0.921404808310151
"4930",38.667061,-121.336181,417132,"Marinello Schools of Beauty-Sacramento","CA",0.0433,0.9567,0.3333,0.1775,0.3788,0.0541,0.0087,0.013,0.0108,0.598755832,0.1563218391,"Sacramento","95841",3,0.6693,1,1,3,8068,23600,0.47504423795056,0.866576594987584,0.999777997094064,0.985721701353371,0.831780132846395
"5013",35.263725,-120.644796,419183,"Central California School of Continuing Education","CA",0.1247,0.8753,0.4156,0.0078,0.4909,0.0234,0.0026,0.0078,0.0078,0.6024096386,0.2197309417,"San Luis Obispo","93401",3,0.8908,1,1,2,5461,42800,0.688371269260244,0.751964035371495,0.968199472219655,0.984476728590819,0.848252876360553
"5057",33.748001,-117.868152,420608,"Colleen O'Haras Beauty Academy","CA",0.0317,0.9683,0.0476,0.0159,0.9127,0.0079,0,0,0,0.7441860465,0.1826923077,"Santa Ana","92701-0000",3,0.4907,1,1,3,8731,20700,0.440141026094118,-0.0541932587437022,0.993133290493098,0.895989026661549,0.568767521126266
"5076",33.681307,-117.873219,422695,"Pacific College","CA",0.135,0.865,0.1277,0.0839,0.5803,0.1277,0,0.0073,0.0073,0.6,0.3133802817,"Costa Mesa","92626",3,0.6538,3,1,1,16955,43500,0.711422451851282,0.795982060740411,0.823857052096969,0.985303614411496,0.829141294775039
"5082",34.145839,-118.139189,423980,"Le Cordon Bleu College of Culinary Arts-Pasadena","CA",0.5033,0.4967,0.1842,0.1049,0.0435,0.1088,0.0106,0.0123,0.005,0.5189340813,0.1106337272,"Pasadena","91101",3,0.7417,2,1,2,11500,38900,0.953668713199726,0.618642119707206,0.989420981037893,0.999934980521169,0.890416698616498
"5128",38.525148,-121.394446,430342,"CET-Sacramento","CA",0.3642,0.6358,0.2252,0.3311,0.3377,0.0397,0.0199,0.0132,0.0331,0.6605664488,0.2064714946,"Sacramento","95828",2,0.3018,1,1,3,5278,24900,0.995247844451113,0.284403698795879,0.979219962154627,0.957655706057756,0.804131802864844
"5147",33.835712,-118.315267,430980,"Everest College-Torrance","CA",0.162,0.838,0.1197,0.1479,0.4648,0.0634,0,0.0423,0.1338,0.6115107914,0.0653266332,"Torrance","90501",3,0.6753,1,1,3,8022,23500,0.767644350790335,0.471985958419281,0.951764216921388,0.981149448164891,0.793135993573974
"5154",36.83679,-119.723249,431141,"Institute of Technology Inc","CA",0.4412,0.5588,0.3779,0.0477,0.3067,0.0235,0.0067,7e-04,0.0242,0.5640194489,0.2323117669,"Clovis","93612",3,0.6949,2,1,2,9500,28800,0.992189679983923,0.852929506143899,0.955583519719554,0.994958849423121,0.948915388817624
"5182",33.976895,-117.369777,432302,"Brightwood College-Riverside","CA",0.2195,0.7805,0.2317,0.1098,0.6037,0.0061,0.0061,0.0183,0,0.5804540967,0.1402616279,"Riverside","92507-0000",3,0.525,2,1,2,9400.5,39400,0.867096253039606,0.751431913092525,0.999298122230566,0.991174665152565,0.902250238378815
"5185",34.068595,-117.571744,432384,"Platt College-Ontario","CA",0.2947,0.7053,0.2181,0.0835,0.5708,0.0487,0.007,0.0046,0.058,0.585504886,0.1525320317,"Ontario","91764",3,0.6188,3,2,1,18870.5,33500,0.955510565180191,0.870465702254381,0.999973661415551,0.989800216333271,0.953937536295848
"5187",34.019215,-118.451869,432533,"Argosy University-The Art Institute of California-Los Angeles","CA",0.5787,0.4213,0.0634,0.0327,0.3886,0.0167,0.0014,0.0042,0.0097,0.5099347495,0.1975711015,"Santa Monica","90405-3035",3,0.7998,3,3,1,10000,41300,0.86362481243769,0.701788153626367,0.985307305289883,0.999979756421547,0.887675006943872
"5188",33.797115,-118.171442,433004,"American University of Health Sciences","CA",0.2993,0.7007,0.0876,0.073,0.146,0.6387,0,0.0073,0.0438,0.3064516129,0.2374100719,"Signal Hill","90755-3612",3,0.8643,4,3,1,29000,40900,0.959386733542246,-2.25846484321931,0.949872247537181,0.916736230648526,0.141882592127161
"5189",33.693904,-117.885043,433013,"Career Networks Institute","CA",0.2427,0.7573,0.2688,0.086,0.4194,0.1751,0.0123,0.0046,0.0046,0.4540059347,0.228742515,"Orange","92868-4710",3,0.731,1,1,2,11687,28100,0.899408397636958,0.903091982285203,0.959376397629551,0.99318154215317,0.938764579926221
"5197",34.257884,-119.226434,433420,"Santa Barbara Business College-Ventura","CA",0.183,0.817,0.2281,0.0769,0.6154,0.0212,0.008,0.008,0.0159,0.603125,0.2325581395,"Ventura","93003",3,0.8635,4,2,1,13400,35200,0.8071652067488,0.797162137721075,0.955315466433066,0.984226890515002,0.885967425354486
"5206",32.619148,-117.093014,434140,"Pima Medical Institute-Chula Vista","CA",0.2431,0.7569,0.2653,0.061,0.5161,0.1077,0.0044,0.0022,0.0266,0.5067976493,0.2110944313,"Chula Vista","91910",3,0.659,2,1,2,8445,29800,0.899926101995437,0.944661041058817,0.975642860436077,0.99992117102164,0.955037793627993
"5211",34.408326,-118.462007,434317,"Charter College-Canyon Country","CA",0.2015,0.7985,0.1864,0.2298,0.4925,0.0085,0.0028,0.0508,0.0207,0.5561850803,0.1443020904,"Canyon Country","91351",3,0.5072,2,1,1,9500,27900,0.838931124043433,0.470486341853761,0.999741456054026,0.996392249099058,0.82638779276257
"5252",33.779113,-117.897468,436438,"Argosy University-Orange County","CA",0.4459,0.5541,0.2613,0.1306,0.4685,0.0856,0.009,0.0225,0,0.5099347495,0.1975711015,"Orange","92868",3,0.652,4,3,1,10000,41300,0.990400278289392,0.913329812158186,0.985307305289883,0.999979756421547,0.972254288039752
"5271",37.809422,-121.294377,437219,"ITT Technical Institute-Lathrop","CA",0.7516,0.2484,0.3376,0.0807,0.3567,0.1189,0.017,0,0.0573,0.4972857507,0.2337406569,"Lathrop","95330",3,0.7927,3,2,1,13566,42800,0.477954990766899,0.937919206671916,0.954017663877175,0.999509074179081,0.842350233873768
"5279",33.977562,-118.225098,437662,"ICDC College","CA",0.2184,0.7816,0.19,0.513,0.1679,0.0036,0.0089,0.0021,0.0438,0.5910430171,0.2078134588,"Huntington Park","90255",3,0.5358,2,1,2,8401.5,24100,0.86545264344779,-1.21059155006091,0.978210834574086,0.988178871006351,0.405312699741829
"5282",33.528952,-117.163739,437750,"Professional Golfers Career College","CA",0.9113,0.0887,0.746,0.0242,0.0484,0.0847,0.0161,0,0,0.3630136986,0.1910828025,"Temecula","92591",3,0.6038,2,2,2,12000,41700,-0.09997258517441,-0.205633165382027,0.989081666851754,0.956069546245949,0.409886365635316
"5285",33.80945,-117.878214,437848,"Westwood College-Anaheim","CA",0.5374,0.4626,0.1514,0.0306,0.6207,0.034,0.0068,0.0051,0.0204,0.5966555184,0.1782082324,"Anaheim","92806",3,0.8044,3,3,1,23125,39000,0.918824164746623,0.725930630609918,0.994915084575273,0.986413796516755,0.906520919112142
"5287",34.180805,-118.309153,437884,"InterCoast Colleges-Burbank","CA",0.7708,0.2292,0.3542,0.0833,0.5208,0,0,0,0.0208,0.5297580118,0.238625363,"Burbank","91502",3,0.9462,1,1,3,9500,26100,0.419732906846572,0.819540014471516,0.948459873847114,0.999462998458603,0.796798948405951
"5288",37.24814,-121.776721,437936,"Carrington College-San Jose","CA",0.123,0.877,0.241,0.0186,0.4845,0.1839,0.0112,0.0298,0.0261,0.5172798216,0.1471196455,"San Jose","95138",3,0.6076,2,1,2,12117,31100,0.684481557654903,0.796162005839441,0.999922251967245,0.999966889446375,0.870133176226991
"5293",37.962649,-122.072153,438258,"Carrington College-Pleasant Hill","CA",0.1853,0.8147,0.3973,0.1202,0.2671,0.1202,0.0134,0.025,0.025,0.5172798216,0.1471196455,"Pleasant Hill","94523",3,0.6401,2,1,2,12117,31100,0.811270002336174,0.856286766054328,0.999922251967245,0.999966889446375,0.91686147745103
